[
  {
    "title": "Uncle Sam Jam",
    "date": "July 10",
    "time": "All Day",
    "location": "Civic Center Park- Woodhaven",
    "url": "https://littleguidedetroit.com/event/uncle-sam-jam/2026-07-10/",
    "site": "Detroit Metro",
    "parsed_date": "2026-07-10",
    "lat": 42.3314,
    "lon": -83.0458,
    "category": "outdoor"
  },
  {
    "title": "African World Festival",
    "date": "July 10",
    "time": "All Day",
    "location": "Hart Plaza",
    "url": "https://littleguidedetroit.com/event/african-world-festival/2026-07-10/",
    "site": "Detroit Metro",
    "parsed_date": "2026-07-10",
    "lat": 42.3314,
    "lon": -83.0458,
    "category": "festival"
  },
  {
    "title": "Oakland County Fair",
    "date": "July 10",
    "time": "All Day",
    "location": "Springfield Oaks County Park",
    "url": "https://littleguidedetroit.com/event/oakland-county-fair-2/2026-07-10/",
    "site": "Detroit Metro",
    "parsed_date": "2026-07-10",
    "lat": 42.3314,
    "lon": -83.0458,
    "category": "festival"
  },
  {
    "title": "Summer Kids\u2019 Series: Emagine",
    "date": "July 10",
    "time": "All Day",
    "location": "Emagine Theatres \u2013 Select Locations",
    "url": "https://littleguidedetroit.com/event/summer-kids-series-emagine/2026-07-10/",
    "site": "Detroit Metro",
    "parsed_date": "2026-07-10",
    "lat": 42.3314,
    "lon": -83.0458,
    "category": "outdoor"
  },
  {
    "title": "Fortunes: A Summer Interactive at the DIA",
    "date": "July 10",
    "time": "All Day",
    "location": "Detroit Institute of Arts",
    "url": "https://littleguidedetroit.com/event/fortunes-a-summer-interactive-at-the-dia/2026-07-10/",
    "site": "Detroit Metro",
    "parsed_date": "2026-07-10",
    "lat": 42.3314,
    "lon": -83.0458,
    "category": "outdoor"
  },
  {
    "title": "5th Annual Wayne County High School Art Exhibition",
    "date": "July 10",
    "time": "All Day",
    "location": "Detroit Institute of Arts",
    "url": "https://littleguidedetroit.com/event/5th-annual-wayne-county-high-school-art-exhibition/2026-07-10/",
    "site": "Detroit Metro",
    "parsed_date": "2026-07-10",
    "lat": 42.3314,
    "lon": -83.0458,
    "category": "outdoor"
  },
  {
    "title": "Teacher Appreciation Month",
    "date": "July 10",
    "time": "All Day",
    "location": "LEGOLAND Discovery Center",
    "url": "https://littleguidedetroit.com/event/teacher-appreciation-month/2026-07-10/",
    "site": "Detroit Metro",
    "parsed_date": "2026-07-10",
    "lat": 42.3314,
    "lon": -83.0458,
    "category": "outdoor"
  },
  {
    "title": "LEGO NINJAGO: The True NINJA Trials",
    "date": "July 10",
    "time": "All Day",
    "location": "LEGOLAND Discovery Center",
    "url": "https://littleguidedetroit.com/event/lego-ninjago-the-true-ninja-trials/2026-07-10/",
    "site": "Detroit Metro",
    "parsed_date": "2026-07-10",
    "lat": 42.3314,
    "lon": -83.0458,
    "category": "outdoor"
  },
  {
    "title": "PREK Story & STEAM",
    "date": "July 10",
    "time": "8:00 AM - 5:00 PM",
    "location": "DINOSAUR HILL NATURE PRESERVE",
    "url": "https://littleguidedetroit.com/event/prek-story-steam-2/2026-07-10/",
    "site": "Detroit Metro",
    "parsed_date": "2026-07-10",
    "lat": 43.0131,
    "lon": -83.6594,
    "category": "library"
  },
  {
    "title": "Little Creators (with Grown-Ups)",
    "date": "July 10",
    "time": "9:30 AM - 10:30 AM",
    "location": "The Suzanne Haskew Arts Center",
    "url": "https://littleguidedetroit.com/event/little-creators-with-grown-ups/2026-07-10/",
    "site": "Detroit Metro",
    "parsed_date": "2026-07-10",
    "lat": 42.2808,
    "lon": -83.743,
    "category": "outdoor"
  },
  {
    "title": "Outdoor Play Group",
    "date": "July 10",
    "time": "10:00 AM - 12:00 PM",
    "location": "Highland Township Public Library",
    "url": "https://littleguidedetroit.com/event/outdoor-play-group-2/2026-07-10/",
    "site": "Detroit Metro",
    "parsed_date": "2026-07-10",
    "lat": 42.5875,
    "lon": -83.381,
    "category": "outdoor"
  },
  {
    "title": "Oakland County Fair",
    "date": "July 10",
    "time": "10:00 AM - 3:00 AM",
    "location": "Springfield Oaks County Park",
    "url": "https://littleguidedetroit.com/event/oakland-county-fair/2026-07-10/",
    "site": "Detroit Metro",
    "parsed_date": "2026-07-10",
    "lat": 42.3314,
    "lon": -83.0458,
    "category": "festival"
  },
  {
    "title": "Wyandotte Street Art Fair",
    "date": "July 10",
    "time": "10:00 AM - 9:00 PM",
    "location": "Downtown Wyandotte",
    "url": "https://littleguidedetroit.com/event/wyandotte-street-art-fair/2026-07-10/",
    "site": "Detroit Metro",
    "parsed_date": "2026-07-10",
    "lat": 42.3314,
    "lon": -83.0458,
    "category": "festival"
  },
  {
    "title": "Reading & Rhythm on the Riverfront",
    "date": "July 10",
    "time": "10:00 AM - 12:30 PM",
    "location": "GABRIEL RICHARD PARK",
    "url": "https://littleguidedetroit.com/event/reading-rhythm-on-the-riverfront/2026-07-10/",
    "site": "Detroit Metro",
    "parsed_date": "2026-07-10",
    "lat": 42.3314,
    "lon": -83.0458,
    "category": "library"
  },
  {
    "title": "Milford Sidewalk Sales",
    "date": "July 10",
    "time": "10:00 AM - 7:00 PM",
    "location": "Downtown Milford",
    "url": "https://littleguidedetroit.com/event/milford-sidewalk-sales/2026-07-10/",
    "site": "Detroit Metro",
    "parsed_date": "2026-07-10",
    "lat": 42.3314,
    "lon": -83.0458,
    "category": "outdoor"
  },
  {
    "title": "Big Truck and Emergency Vehicle Day",
    "date": "July 10",
    "time": "10:00 AM - 12:00 PM",
    "location": "DEXTER DISTRICT LIBRARY",
    "url": "https://littleguidedetroit.com/event/big-truck-and-emergency-vehicle-day/",
    "site": "Detroit Metro",
    "parsed_date": "2026-07-10",
    "lat": 42.3314,
    "lon": -83.0458,
    "category": "outdoor"
  },
  {
    "title": "Morning Munchkins",
    "date": "July 10",
    "time": "10:30 AM - 11:30 AM",
    "location": "Red Oaks Nature Center",
    "url": "https://littleguidedetroit.com/event/morning-munchkins-4/2026-07-10/",
    "site": "Detroit Metro",
    "parsed_date": "2026-07-10",
    "lat": 42.3314,
    "lon": -83.0458,
    "category": "outdoor"
  },
  {
    "title": "Puddle Jumpers",
    "date": "July 10",
    "time": "10:30 AM - 11:30 AM",
    "location": "Independence Oaks County Park",
    "url": "https://littleguidedetroit.com/event/puddle-jumpers/2026-07-10/",
    "site": "Detroit Metro",
    "parsed_date": "2026-07-10",
    "lat": 42.3314,
    "lon": -83.0458,
    "category": "outdoor"
  },
  {
    "title": "Art in the Park",
    "date": "July 10",
    "time": "11:00 AM - 8:00 PM",
    "location": "Downtown Plymouth",
    "url": "https://littleguidedetroit.com/event/art-in-the-park/2026-07-10/",
    "site": "Detroit Metro",
    "parsed_date": "2026-07-10",
    "lat": 42.3314,
    "lon": -83.0458,
    "category": "outdoor"
  },
  {
    "title": "Foodie Fridays",
    "date": "July 10",
    "time": "11:00 AM - 7:00 PM",
    "location": "County Farm Park",
    "url": "https://littleguidedetroit.com/event/foodie-fridays/2026-07-10/",
    "site": "Detroit Metro",
    "parsed_date": "2026-07-10",
    "lat": 42.3314,
    "lon": -83.0458,
    "category": "outdoor"
  },
  {
    "title": "Blake\u2019s Lavender Festival",
    "date": "July 10",
    "time": "11:00 AM - 6:00 PM",
    "location": "Blake Farms and Apple Orchard",
    "url": "https://littleguidedetroit.com/event/blakes-lavender-festival/2026-07-10/",
    "site": "Detroit Metro",
    "parsed_date": "2026-07-10",
    "lat": 42.448,
    "lon": -83.1265,
    "category": "festival"
  },
  {
    "title": "Foam Party",
    "date": "July 10",
    "time": "11:00 AM - 1:00 PM",
    "location": "Licht Park",
    "url": "https://littleguidedetroit.com/event/foam-party-2/",
    "site": "Detroit Metro",
    "parsed_date": "2026-07-10",
    "lat": 42.3314,
    "lon": -83.0458,
    "category": "outdoor"
  },
  {
    "title": "Rochester Open Swim",
    "date": "July 10",
    "time": "12:00 PM - 1:00 PM",
    "location": "Goldfish Swim School \u2013 Rochester",
    "url": "https://littleguidedetroit.com/event/rochester-open-swim/2026-07-10/",
    "site": "Detroit Metro",
    "parsed_date": "2026-07-10",
    "lat": 42.6984,
    "lon": -83.1348,
    "category": "sport"
  },
  {
    "title": "A Taste of Brighton",
    "date": "July 10",
    "time": "12:00 PM - 11:00 PM",
    "location": "Downtown Brighton",
    "url": "https://littleguidedetroit.com/event/a-taste-of-brighton/2026-07-10/",
    "site": "Detroit Metro",
    "parsed_date": "2026-07-10",
    "lat": 42.3314,
    "lon": -83.0458,
    "category": "outdoor"
  },
  {
    "title": "Parents Night Out",
    "date": "July 10",
    "time": "1:00 PM - 4:00 PM",
    "location": "SOUTH OAKLAND FAMILY YMCA",
    "url": "https://littleguidedetroit.com/event/parents-night-out-5/2026-07-10/",
    "site": "Detroit Metro",
    "parsed_date": "2026-07-10",
    "lat": 42.3314,
    "lon": -83.0458,
    "category": "outdoor"
  },
  {
    "title": "Classic Movie Family Matinee: The Land Before Time",
    "date": "July 10",
    "time": "2:00 PM - 3:30 PM",
    "location": "Troy Public Library",
    "url": "https://littleguidedetroit.com/event/classic-movie-family-matinee-the-land-before-time/",
    "site": "Detroit Metro",
    "parsed_date": "2026-07-10",
    "lat": 42.6064,
    "lon": -83.1498,
    "category": "educational"
  },
  {
    "title": "Chow Time at the Farm",
    "date": "July 10",
    "time": "3:00 PM - 4:00 PM",
    "location": "Kensington Metropark Farm Center",
    "url": "https://littleguidedetroit.com/event/chow-time-at-the-farm/2026-07-10/",
    "site": "Detroit Metro",
    "parsed_date": "2026-07-10",
    "lat": 42.3314,
    "lon": -83.0458,
    "category": "outdoor"
  },
  {
    "title": "Open Barn",
    "date": "July 10",
    "time": "5:00 PM - 8:00 PM",
    "location": "CHARLES L. BOWERS SCHOOL FARM",
    "url": "https://littleguidedetroit.com/event/open-barn-3/2026-07-10/",
    "site": "Detroit Metro",
    "parsed_date": "2026-07-10",
    "lat": 42.5948,
    "lon": -83.6945,
    "category": "outdoor"
  },
  {
    "title": "Friday Fun Nights",
    "date": "July 10",
    "time": "5:00 PM - 9:00 PM",
    "location": "Kennedy Recreation Center",
    "url": "https://littleguidedetroit.com/event/friday-fun-nights/2026-07-10/",
    "site": "Detroit Metro",
    "parsed_date": "2026-07-10",
    "lat": 42.3314,
    "lon": -83.0458,
    "category": "outdoor"
  },
  {
    "title": "Twilight Adventures",
    "date": "July 10",
    "time": "6:00 PM - 9:00 PM",
    "location": "Potter Park Zoo",
    "url": "https://littleguidedetroit.com/event/twilight-adventures/2026-07-10/",
    "site": "Detroit Metro",
    "parsed_date": "2026-07-10",
    "lat": 42.3314,
    "lon": -83.0458,
    "category": "outdoor"
  },
  {
    "title": "Sensory Splash Time",
    "date": "July 10",
    "time": "6:00 PM - 8:00 PM",
    "location": "Blue Heron Bay",
    "url": "https://littleguidedetroit.com/event/sensory-splash-time/2026-07-10/",
    "site": "Detroit Metro",
    "parsed_date": "2026-07-10",
    "lat": 42.3314,
    "lon": -83.0458,
    "category": "outdoor"
  },
  {
    "title": "S\u2019mores and Stories- Ah Bing Cherries!",
    "date": "July 10",
    "time": "6:00 PM - 7:00 PM",
    "location": "Greenmead Historic Village",
    "url": "https://littleguidedetroit.com/event/smores-and-stories-ah-bing-cherries/",
    "site": "Detroit Metro",
    "parsed_date": "2026-07-10",
    "lat": 42.3314,
    "lon": -83.0458,
    "category": "outdoor"
  },
  {
    "title": "Canton Open Swim",
    "date": "July 10",
    "time": "6:30 PM - 8:00 PM",
    "location": "Goldfish Swim School \u2013 Canton",
    "url": "https://littleguidedetroit.com/event/canton-open-swim/2026-07-10/",
    "site": "Detroit Metro",
    "parsed_date": "2026-07-10",
    "lat": 42.3067,
    "lon": -83.4423,
    "category": "sport"
  },
  {
    "title": "Macomb Family Swim",
    "date": "July 10",
    "time": "6:30 PM - 8:00 PM",
    "location": "Goldfish Swim School \u2013 Macomb",
    "url": "https://littleguidedetroit.com/event/macomb-family-swim/2026-07-10/",
    "site": "Detroit Metro",
    "parsed_date": "2026-07-10",
    "lat": 42.6969,
    "lon": -82.9667,
    "category": "sport"
  },
  {
    "title": "Rochester Family Swim",
    "date": "July 10",
    "time": "6:30 PM - 8:00 PM",
    "location": "Goldfish Swim School \u2013 Rochester",
    "url": "https://littleguidedetroit.com/event/rochester-family-swim/2026-07-10/",
    "site": "Detroit Metro",
    "parsed_date": "2026-07-10",
    "lat": 42.6984,
    "lon": -83.1348,
    "category": "sport"
  },
  {
    "title": "Outdoor Movie Night \u2013 Tangled",
    "date": "July 10",
    "time": "6:30 PM - 9:00 PM",
    "location": "Booth Park",
    "url": "https://littleguidedetroit.com/event/outdoor-movie-night-tangled/",
    "site": "Detroit Metro",
    "parsed_date": "2026-07-10",
    "lat": 42.3314,
    "lon": -83.0458,
    "category": "outdoor"
  },
  {
    "title": "Octopus Splash Bash Family Swim",
    "date": "July 10",
    "time": "6:30 PM - 8:00 PM",
    "location": "Goldfish Swim School \u2013 Birmingham",
    "url": "https://littleguidedetroit.com/event/octopus-splash-bash-family-swim/",
    "site": "Detroit Metro",
    "parsed_date": "2026-07-10",
    "lat": 42.5475,
    "lon": -83.2118,
    "category": "sport"
  },
  {
    "title": "Rhythms in Riley Park",
    "date": "July 10",
    "time": "7:00 PM - 9:00 PM",
    "location": "Riley Park",
    "url": "https://littleguidedetroit.com/event/rhythms-in-riley-park/2026-07-10/",
    "site": "Detroit Metro",
    "parsed_date": "2026-07-10",
    "lat": 42.3314,
    "lon": -83.0458,
    "category": "outdoor"
  },
  {
    "title": "Friday Nights at the Fountain",
    "date": "July 10",
    "time": "7:00 PM - 9:00 PM",
    "location": "Downtown Milford",
    "url": "https://littleguidedetroit.com/event/friday-nights-at-the-fountain/2026-07-10/",
    "site": "Detroit Metro",
    "parsed_date": "2026-07-10",
    "lat": 42.3314,
    "lon": -83.0458,
    "category": "outdoor"
  },
  {
    "title": "Concerts in the Park",
    "date": "July 10",
    "time": "7:00 PM - 8:30 PM",
    "location": "McHattie Park",
    "url": "https://littleguidedetroit.com/event/concerts-in-the-park/2026-07-10/",
    "site": "Detroit Metro",
    "parsed_date": "2026-07-10",
    "lat": 42.3314,
    "lon": -83.0458,
    "category": "festival"
  },
  {
    "title": "Movie Nights In The D",
    "date": "July 10",
    "time": "7:00 PM - 9:00 PM",
    "location": "CAMPUS MARTIUS PARK",
    "url": "https://littleguidedetroit.com/event/movie-nights-in-the-d/2026-07-10/",
    "site": "Detroit Metro",
    "parsed_date": "2026-07-10",
    "lat": 42.3314,
    "lon": -83.0458,
    "category": "outdoor"
  },
  {
    "title": "Summer Concert Series: Stony Creek",
    "date": "July 10",
    "time": "7:00 PM - 8:30 PM",
    "location": "",
    "url": "https://littleguidedetroit.com/event/summer-concert-series-stony-creek/2026-07-10/",
    "site": "Detroit Metro",
    "parsed_date": "2026-07-10",
    "lat": 42.3314,
    "lon": -83.0458,
    "category": "festival"
  },
  {
    "title": "Vibe@5:",
    "date": "Jul 10",
    "time": "All day",
    "location": "Friendship Park",
    "url": "/event/vibe%405%3a/1226/",
    "site": "Battle Creek",
    "parsed_date": "2026-07-10",
    "lat": 42.3211,
    "lon": -85.1797,
    "category": "outdoor"
  },
  {
    "title": "Pride Parade and Drag Show",
    "date": "Jul 17",
    "time": "All day",
    "location": "",
    "url": "/event/pride-parade-and-drag-show/1233/",
    "site": "Battle Creek",
    "parsed_date": "2026-07-17",
    "lat": 42.3211,
    "lon": -85.1797,
    "category": "outdoor"
  },
  {
    "title": "Vibe@5: Toppermost Beatles Tribute Band",
    "date": "Jul 17",
    "time": "All day",
    "location": "Friendship Park",
    "url": "/event/vibe%405%3a-toppermost-beatles-tribute-band/1227/",
    "site": "Battle Creek",
    "parsed_date": "2026-07-17",
    "lat": 42.3211,
    "lon": -85.1797,
    "category": "outdoor"
  },
  {
    "title": "2nd ANNUAL First Responders Football",
    "date": "Jul 19",
    "time": "All day",
    "location": "",
    "url": "/event/2nd-annual-first-responders-football/1284/",
    "site": "Battle Creek",
    "parsed_date": "2026-07-19",
    "lat": 42.3211,
    "lon": -85.1797,
    "category": "outdoor"
  },
  {
    "title": "190th Anniversery Celebration of the First Congregational Church",
    "date": "Jul 10",
    "time": "All day",
    "location": "",
    "url": "/event/190th-anniversery-celebration-of-the-first-congregational-church/1281/",
    "site": "Battle Creek",
    "parsed_date": "2026-07-10",
    "lat": 42.3211,
    "lon": -85.1797,
    "category": "festival"
  }
]