[
  {
    "title": "Weekend Hayrides",
    "date": "May 3, 2026",
    "time": "12:00 PM - 4:00 PM",
    "location": "KENSINGTON METRO PARK FARM CENTER",
    "lat": 42.4914,
    "lon": -83.0936,
    "category": "outdoor",
    "url": "https://littleguidedetroit.com/event/weekend-hayrides-2/2026-05-03/",
    "site": "Detroit Metro"
  },
  {
    "title": "Princess and Pirate Tea",
    "date": "May 3, 2026",
    "time": "12:00 PM - 2:00 PM",
    "location": "PLYMOUTH HISTORICAL MUSEUM",
    "lat": 42.4207,
    "lon": -83.4976,
    "category": "library",
    "url": "https://littleguidedetroit.com/event/princess-and-pirate-tea/",
    "site": "Detroit Metro"
  },
  {
    "title": "Free Mini Train Rides",
    "date": "May 3, 2026",
    "time": "12:00 PM - 4:00 PM",
    "location": "Starr-Jaycee Park",
    "lat": 42.3766,
    "lon": -83.0586,
    "category": "nature",
    "url": "https://littleguidedetroit.com/event/free-mini-train-rides-2/2026-05-03/",
    "site": "Detroit Metro"
  },
  {
    "title": "Asian American & Pacific Islander Fest",
    "date": "May 3, 2026",
    "time": "1:00 PM - 4:30 PM",
    "location": "FARMINGTON COMMUNITY LIBRARY",
    "lat": 42.4783,
    "lon": -83.3965,
    "category": "outdoor",
    "url": "https://littleguidedetroit.com/event/asian-american-pacific-islander-fest/",
    "site": "Detroit Metro"
  },
  {
    "title": "Lansing Spring Carnival",
    "date": "May 3, 2026",
    "time": "1:00 PM - 10:00 PM",
    "location": "Abundant Grace Faith Church",
    "lat": 42.748,
    "lon": -84.5516,
    "category": "festival",
    "url": "https://littleguidedetroit.com/event/lansing-spring-carnival/2026-05-03/",
    "site": "Detroit Metro"
  },
  {
    "title": "Feeding Time in the Nature Center",
    "date": "May 3, 2026",
    "time": "1:00 PM - 2:00 PM",
    "location": "Stony Creek Nature Center",
    "lat": 42.5547,
    "lon": -83.7338,
    "category": "nature",
    "url": "https://littleguidedetroit.com/event/feeding-time-in-the-nature-center-2/",
    "site": "Detroit Metro"
  },
  {
    "title": "Tulip Fest",
    "date": "May 3, 2026",
    "time": "1:00 PM - 3:00 PM",
    "location": "Twelve Mile Crossing at Fountain Walk",
    "lat": 42.5226,
    "lon": -83.108,
    "category": "outdoor",
    "url": "https://littleguidedetroit.com/event/tulip-fest/",
    "site": "Detroit Metro"
  },
  {
    "title": "Star Wars Day Celebration",
    "date": "May 3, 2026",
    "time": "1:00 PM - 5:00 PM",
    "location": "Longway Planetarium",
    "lat": 42.4753,
    "lon": -83.3901,
    "category": "festival",
    "url": "https://littleguidedetroit.com/event/star-wars-day-celebration/",
    "site": "Detroit Metro"
  },
  {
    "title": "Bloom Where You're Planted",
    "date": "May 3, 2026",
    "time": "1:00 PM - 4:00 PM",
    "location": "CRANBROOK SCIENCE MUSEUM",
    "lat": 42.5023,
    "lon": -83.2668,
    "category": "library",
    "url": "https://littleguidedetroit.com/event/bloom-where-youre-planted/",
    "site": "Detroit Metro"
  },
  {
    "title": "Farmers Market",
    "date": "May 3, 2026",
    "time": "10:00 AM - 2:00 PM",
    "location": "MSU Tollgate Farm",
    "lat": 42.7165,
    "lon": -84.4987,
    "category": "outdoor",
    "url": "https://littleguidedetroit.com/event/farmers-market-3/",
    "site": "Detroit Metro"
  },
  {
    "title": "The Star Wars Experience",
    "date": "May 3, 2026",
    "time": "12:00 PM - 4:00 PM",
    "location": "Theut's Flower Barn",
    "lat": 42.5157,
    "lon": -83.1529,
    "category": "festival",
    "url": "https://littleguidedetroit.com/event/the-star-wars-experience-2/",
    "site": "Detroit Metro"
  },
  {
    "title": "Crawling for a Cure 5K",
    "date": "May 3, 2026",
    "time": "9:30 AM - 1:00 PM",
    "location": "Greektown",
    "lat": 42.3386,
    "lon": -83.0476,
    "category": "sport",
    "url": "https://littleguidedetroit.com/event/crawling-for-a-cure-5k/",
    "site": "Detroit Metro"
  },
  {
    "title": "Spring at Blake Farms",
    "date": "May 3, 2026",
    "time": "10:00 AM - 4:30 PM",
    "location": "Blake Farms and Apple Orchard",
    "lat": 42.448,
    "lon": -83.1265,
    "category": "outdoor",
    "url": "https://littleguidedetroit.com/event/spring-at-blake-farms/",
    "site": "Detroit Metro"
  },
  {
    "title": "Nature Day",
    "date": "May 3, 2026",
    "time": "12:00 PM - 2:00 PM",
    "location": "BELLE ISLE NATURE CENTER",
    "lat": 42.3421,
    "lon": -82.9717,
    "category": "nature",
    "url": "https://littleguidedetroit.com/event/nature-day/",
    "site": "Detroit Metro"
  },
  {
    "title": "Family Fishing Derby",
    "date": "May 3, 2026",
    "time": "8:00 AM - 3:00 PM",
    "location": "Stony Creek Metropark",
    "lat": 42.5547,
    "lon": -83.7338,
    "category": "nature",
    "url": "https://littleguidedetroit.com/event/family-fishing-derby-3/",
    "site": "Detroit Metro"
  },
  {
    "title": "Star Wars Day Fun Run",
    "date": "May 3, 2026",
    "time": "8:00 AM - 2:00 PM",
    "location": "Greektown",
    "lat": 42.3386,
    "lon": -83.0476,
    "category": "sport",
    "url": "https://littleguidedetroit.com/event/star-wars-day-fun-run/",
    "site": "Detroit Metro"
  },
  {
    "title": "Star Wars Day Celebration",
    "date": "May 3, 2026",
    "time": "1:00 PM - 5:00 PM",
    "location": "Longway Planetarium",
    "lat": 42.4753,
    "lon": -83.3901,
    "category": "festival",
    "url": "https://littleguidedetroit.com/event/star-wars-day-celebration/2026-05-03/",
    "site": "Detroit Metro"
  },
  {
    "title": "Farmers Market",
    "date": "May 3, 2026",
    "time": "10:00 AM - 2:00 PM",
    "location": "MSU Tollgate Farm",
    "lat": 42.7165,
    "lon": -84.4987,
    "category": "outdoor",
    "url": "https://littleguidedetroit.com/event/farmers-market-3/2026-05-03/",
    "site": "Detroit Metro"
  },
  {
    "title": "Spring at Blake Farms",
    "date": "May 3, 2026",
    "time": "10:00 AM - 4:30 PM",
    "location": "Blake Farms and Apple Orchard",
    "lat": 42.448,
    "lon": -83.1265,
    "category": "outdoor",
    "url": "https://littleguidedetroit.com/event/spring-at-blake-farms/2026-05-03/",
    "site": "Detroit Metro"
  },
  {
    "title": "Nature Day",
    "date": "May 3, 2026",
    "time": "12:00 PM - 2:00 PM",
    "location": "BELLE ISLE NATURE CENTER",
    "lat": 42.3421,
    "lon": -82.9717,
    "category": "nature",
    "url": "https://littleguidedetroit.com/event/nature-day/2026-05-03/",
    "site": "Detroit Metro"
  },
  {
    "title": "Weekend Hayrides",
    "date": "May 9, 2026",
    "time": "12:00 PM - 4:00 PM",
    "location": "KENSINGTON METRO PARK FARM CENTER",
    "lat": 42.4914,
    "lon": -83.0936,
    "category": "outdoor",
    "url": "https://littleguidedetroit.com/event/weekend-hayrides-2/2026-05-09/",
    "site": "Detroit Metro"
  },
  {
    "title": "Free Mini Train Rides",
    "date": "May 9, 2026",
    "time": "12:00 PM - 4:00 PM",
    "location": "Starr-Jaycee Park",
    "lat": 42.3766,
    "lon": -83.0586,
    "category": "nature",
    "url": "https://littleguidedetroit.com/event/free-mini-train-rides-2/2026-05-09/",
    "site": "Detroit Metro"
  },
  {
    "title": "Lansing Spring Carnival",
    "date": "May 9, 2026",
    "time": "1:00 PM - 10:00 PM",
    "location": "Abundant Grace Faith Church",
    "lat": 42.748,
    "lon": -84.5516,
    "category": "festival",
    "url": "https://littleguidedetroit.com/event/lansing-spring-carnival/2026-05-09/",
    "site": "Detroit Metro"
  },
  {
    "title": "Star Wars Day Celebration",
    "date": "May 9, 2026",
    "time": "1:00 PM - 5:00 PM",
    "location": "Longway Planetarium",
    "lat": 42.4753,
    "lon": -83.3901,
    "category": "festival",
    "url": "https://littleguidedetroit.com/event/star-wars-day-celebration/2026-05-09/",
    "site": "Detroit Metro"
  },
  {
    "title": "Farmers Market",
    "date": "May 9, 2026",
    "time": "10:00 AM - 2:00 PM",
    "location": "MSU Tollgate Farm",
    "lat": 42.7165,
    "lon": -84.4987,
    "category": "outdoor",
    "url": "https://littleguidedetroit.com/event/farmers-market-3/2026-05-09/",
    "site": "Detroit Metro"
  },
  {
    "title": "Spring at Blake Farms",
    "date": "May 9, 2026",
    "time": "10:00 AM - 4:30 PM",
    "location": "Blake Farms and Apple Orchard",
    "lat": 42.448,
    "lon": -83.1265,
    "category": "outdoor",
    "url": "https://littleguidedetroit.com/event/spring-at-blake-farms/2026-05-09/",
    "site": "Detroit Metro"
  },
  {
    "title": "Nature Day",
    "date": "May 9, 2026",
    "time": "12:00 PM - 2:00 PM",
    "location": "BELLE ISLE NATURE CENTER",
    "lat": 42.3421,
    "lon": -82.9717,
    "category": "nature",
    "url": "https://littleguidedetroit.com/event/nature-day/2026-05-09/",
    "site": "Detroit Metro"
  },
  {
    "title": "Mother's Day Brunch",
    "date": "May 10, 2026",
    "time": "10:00 AM",
    "location": "South Haven, MI",
    "lat": 42.4059,
    "lon": -86.3163,
    "category": "sport",
    "url": "https://www.southhavenmi.com/event/mothers-day-brunch/",
    "site": "South Haven"
  },
  {
    "title": "South Haven Farmers Market",
    "date": "May 10, 2026",
    "time": "9:00 AM",
    "location": "South Haven, MI",
    "lat": 42.4059,
    "lon": -86.3163,
    "category": "outdoor",
    "url": "https://www.southhavenmi.com/event/south-haven-farmers-market/",
    "site": "South Haven"
  },
  {
    "title": "Yacht Club Regatta",
    "date": "May 9, 2026",
    "time": "9:00 AM",
    "location": "South Haven, MI",
    "lat": 42.4059,
    "lon": -86.3163,
    "category": "sport",
    "url": "https://www.southhavenmi.com/event/yacht-club-regatta/",
    "site": "South Haven"
  },
  {
    "title": "Bike Rodeo",
    "date": "May 9, 2026",
    "time": "10:00 AM",
    "location": "South Haven, MI",
    "lat": 42.4059,
    "lon": -86.3163,
    "category": "sport",
    "url": "https://www.southhavenmi.com/event/bike-rodeo/",
    "site": "South Haven"
  },
  {
    "title": "Lake Michigan Music Series",
    "date": "May 9, 2026",
    "time": "5:00 PM",
    "location": "South Haven, MI",
    "lat": 42.4059,
    "lon": -86.3163,
    "category": "festival",
    "url": "https://www.southhavenmi.com/event/lake-michigan-music-series-2/",
    "site": "South Haven"
  },
  {
    "title": "Grand Traverse Farmers' Market",
    "date": "Recurring Saturday until Oct 3, 2026",
    "time": "",
    "location": "Downtown Square",
    "lat": 44.7631,
    "lon": -85.6206,
    "category": "outdoor",
    "url": "https://www.traversecity.com/event-detail/grand-traverse-farmers-market/140945/",
    "site": "Traverse City"
  },
  {
    "title": "TC Cherry Festival 2026",
    "date": "Jun 12 - Jun 21, 2026",
    "time": "",
    "location": "Traverse City, MI",
    "lat": 44.7631,
    "lon": -85.6206,
    "category": "festival",
    "url": "https://www.traversecity.com/event-detail/tc-cherry-festival-2026/137990/",
    "site": "Traverse City"
  },
  {
    "title": "The Alluvion - Live Music Friday",
    "date": "Recurring Friday until Sep 4, 2026",
    "time": "",
    "location": "The Alluvion",
    "lat": 44.758,
    "lon": -85.605,
    "category": "festival",
    "url": "https://www.traversecity.com/event-detail/the-alluvion-live-music-friday/150111/",
    "site": "Traverse City"
  },
  {
    "title": "Traverse City Farmers' Market",
    "date": "Recurring Wednesday until Oct 7, 2026",
    "time": "",
    "location": "Downtown Square",
    "lat": 44.7631,
    "lon": -85.6206,
    "category": "outdoor",
    "url": "https://www.traversecity.com/event-detail/traverse-city-farmers-market/140800/",
    "site": "Traverse City"
  },
  {
    "title": "Dune Bird Winery Tasting",
    "date": "Dates vary between Apr 30 - May 3",
    "time": "",
    "location": "Dune Bird Winery",
    "lat": 44.795,
    "lon": -85.585,
    "category": "outdoor",
    "url": "https://www.traversecity.com/event-detail/dune-bird-winery-tasting/149823/",
    "site": "Traverse City"
  },
  {
    "title": "Interlochen Chamber Music Festival",
    "date": "Jun 2 - Jul 19, 2026",
    "time": "",
    "location": "Interlochen Center for the Arts",
    "lat": 44.606,
    "lon": -85.628,
    "category": "festival",
    "url": "https://www.traversecity.com/event-detail/interlochen-chamber-music-festival/138531/",
    "site": "Traverse City"
  },
  {
    "title": "Brengman Family Wines Tour",
    "date": "Dates vary between May 1 - Sep 30",
    "time": "",
    "location": "Brengman Family Wines",
    "lat": 44.78,
    "lon": -85.59,
    "category": "outdoor",
    "url": "https://www.traversecity.com/event-detail/brengman-family-wines-tour/148203/",
    "site": "Traverse City"
  },
  {
    "title": "Central United Methodist Church Concert",
    "date": "May 10, 2026",
    "time": "",
    "location": "Central United Methodist Church",
    "lat": 44.761,
    "lon": -85.61,
    "category": "festival",
    "url": "https://www.traversecity.com/event-detail/central-united-methodist-church-concert/150876/",
    "site": "Traverse City"
  },
  {
    "title": "Musical Fountain Show",
    "date": "May 8, 2026",
    "time": "Saturdays 7:30 PM - 9:00 PM",
    "location": "Grand Haven, MI",
    "lat": 43.065,
    "lon": -86.227,
    "category": "festival",
    "url": "https://www.visitgrandhaven.com/events/musical-fountain-show/",
    "site": "Grand Haven"
  },
  {
    "title": "Grand Haven Farmers Market",
    "date": "May 3, 2026",
    "time": "Saturday 8:00 AM - 1:00 PM",
    "location": "Grand Haven, MI",
    "lat": 43.064,
    "lon": -86.225,
    "category": "outdoor",
    "url": "https://www.visitgrandhaven.com/events/grand-haven-farmers-market/",
    "site": "Grand Haven"
  },
  {
    "title": "Grand Haven Kite Festival",
    "date": "May 9, 2026",
    "time": "10:00 AM - 4:00 PM",
    "location": "Grand Haven, MI",
    "lat": 43.065,
    "lon": -86.227,
    "category": "festival",
    "url": "https://www.visitgrandhaven.com/events/grand-haven-kite-festival/",
    "site": "Grand Haven"
  },
  {
    "title": "Grand Haven Beach Cleanup",
    "date": "May 9, 2026",
    "time": "9:00 AM - 12:00 PM",
    "location": "Grand Haven, MI",
    "lat": 43.065,
    "lon": -86.227,
    "category": "nature",
    "url": "https://www.visitgrandhaven.com/events/grand-haven-beach-cleanup/",
    "site": "Grand Haven"
  },
  {
    "title": "Tri-Cities Historical Museum Open House",
    "date": "May 9, 2026",
    "time": "11:00 AM - 3:00 PM",
    "location": "Grand Haven, MI",
    "lat": 43.065,
    "lon": -86.227,
    "category": "library",
    "url": "https://www.visitgrandhaven.com/events/tri-cities-historical-museum-open-house/",
    "site": "Grand Haven"
  },
  {
    "title": "Sunset Concert Series",
    "date": "May 9, 2026",
    "time": "6:00 PM - 8:00 PM",
    "location": "Grand Haven, MI",
    "lat": 43.065,
    "lon": -86.227,
    "category": "festival",
    "url": "https://www.visitgrandhaven.com/events/sunset-concert-series/",
    "site": "Grand Haven"
  },
  {
    "title": "Shelby Township Farmers Market",
    "date": "May 03",
    "time": "All day",
    "location": "Mt. Pleasant, MI",
    "lat": 43.5975,
    "lon": -84.7423,
    "category": "outdoor",
    "url": "https://meetmtp.com/event/shelby-township-farmers-market/",
    "site": "Mt. Pleasant"
  },
  {
    "title": "MSU Extension Master Gardener Plant Sale",
    "date": "May 16",
    "time": "9:00 am - 1:00 pm",
    "location": "Mt. Pleasant, MI",
    "lat": 43.5975,
    "lon": -84.7423,
    "category": "outdoor",
    "url": "https://meetmtp.com/event/msu-extension-master-gardener-plant-sale/",
    "site": "Mt. Pleasant"
  },
  {
    "title": "Mount Pleasant Art Walk",
    "date": "May 10",
    "time": "2:00 pm - 5:00 pm",
    "location": "Mt. Pleasant, MI",
    "lat": 43.5975,
    "lon": -84.7423,
    "category": "educational",
    "url": "https://meetmtp.com/event/mount-pleasant-art-walk/",
    "site": "Mt. Pleasant"
  },
  {
    "title": "Downtown Farmers Market",
    "date": "May 09",
    "time": "8:00 am - 12:00 pm",
    "location": "Mt. Pleasant, MI",
    "lat": 43.5975,
    "lon": -84.7423,
    "category": "outdoor",
    "url": "https://meetmtp.com/event/downtown-farmers-market/",
    "site": "Mt. Pleasant"
  },
  {
    "title": "Movies in the Park",
    "date": "May 10",
    "time": "6:00 pm - 9:00 pm",
    "location": "Mt. Pleasant, MI",
    "lat": 43.5975,
    "lon": -84.7423,
    "category": "nature",
    "url": "https://meetmtp.com/event/movies-in-the-park-2/",
    "site": "Mt. Pleasant"
  },
  {
    "title": "Crawford County Farmers Market",
    "date": "May 9",
    "time": "",
    "location": "Battle Creek, MI",
    "lat": 42.3211,
    "lon": -85.1797,
    "category": "outdoor",
    "url": "https://www.battlecreekvisitors.org/event/crawford-county-farmers-market/",
    "site": "Battle Creek"
  },
  {
    "title": "Battle Creek Community Theater",
    "date": "May 10",
    "time": "",
    "location": "Battle Creek, MI",
    "lat": 42.3211,
    "lon": -85.1797,
    "category": "educational",
    "url": "https://www.battlecreekvisitors.org/event/battle-creek-community-theater-2/",
    "site": "Battle Creek"
  },
  {
    "title": "Whalebone City Brewery Tap Takeover",
    "date": "May 9",
    "time": "",
    "location": "Battle Creek, MI",
    "lat": 42.3211,
    "lon": -85.1797,
    "category": "outdoor",
    "url": "https://www.battlecreekvisitors.org/event/whalebone-city-brewery-tap-takeover/",
    "site": "Battle Creek"
  },
  {
    "title": "Calvin University Art Exhibition",
    "date": "May 8",
    "time": "",
    "location": "Battle Creek, MI",
    "lat": 42.3211,
    "lon": -85.1797,
    "category": "educational",
    "url": "https://www.battlecreekvisitors.org/event/calvin-university-art-exhibition/",
    "site": "Battle Creek"
  },
  {
    "title": "Downtown Walking Tour",
    "date": "May 3",
    "time": "",
    "location": "Battle Creek, MI",
    "lat": 42.3211,
    "lon": -85.1797,
    "category": "outdoor",
    "url": "https://www.battlecreekvisitors.org/event/downtown-walking-tour/",
    "site": "Battle Creek"
  },
  {
    "title": "Upheaval Festival 2026",
    "date": "July 17, 2026",
    "time": "",
    "location": "Belknap Park",
    "lat": 42.9634,
    "lon": -85.6681,
    "category": "festival",
    "url": "https://www.experiencegr.com/event/upheaval-festival-2026/96783/",
    "site": "Grand Rapids"
  },
  {
    "title": "Breakaway Music Festival 2026",
    "date": "August 14, 2026",
    "time": "",
    "location": "Grand Rapids, MI",
    "lat": 42.9626,
    "lon": -85.6669,
    "category": "festival",
    "url": "https://www.experiencegr.com/event/breakaway-music-festival-2026/96782/",
    "site": "Grand Rapids"
  },
  {
    "title": "Burning Foot Beer Festival 2026",
    "date": "August 29, 2026",
    "time": "",
    "location": "Heritage Landing Park",
    "lat": 42.9557,
    "lon": -85.6684,
    "category": "festival",
    "url": "https://www.experiencegr.com/event/burning-foot-beer-festival-2026/96385/",
    "site": "Grand Rapids"
  },
  {
    "title": "Pitbull",
    "date": "September 10, 2026",
    "time": "",
    "location": "Acrisure Amphitheater",
    "lat": 42.9634,
    "lon": -85.6342,
    "category": "educational",
    "url": "https://www.experiencegr.com/event/pitbull/96465/",
    "site": "Grand Rapids"
  },
  {
    "title": "The Grand Rapids Lantern Festival",
    "date": "May 7, 2026",
    "time": "",
    "location": "John Ball Zoo",
    "lat": 42.9626,
    "lon": -85.6669,
    "category": "festival",
    "url": "https://www.experiencegr.com/event/the-grand-rapids-lantern-festival/96053/",
    "site": "Grand Rapids"
  },
  {
    "title": "Tulip Time Festival 2026",
    "date": "May 7, 2026",
    "time": "",
    "location": "Tulip Time Festival",
    "lat": 42.9634,
    "lon": -85.6681,
    "category": "festival",
    "url": "https://www.experiencegr.com/event/tulip-time-festival-2026/88781/",
    "site": "Grand Rapids"
  },
  {
    "title": "Cider Week GR",
    "date": "May 8, 2026",
    "time": "",
    "location": "Grand Rapids, MI",
    "lat": 42.9626,
    "lon": -85.6669,
    "category": "outdoor",
    "url": "https://www.experiencegr.com/event/cider-week-gr/95393/",
    "site": "Grand Rapids"
  },
  {
    "title": "Amway River Bank Run 2026",
    "date": "May 9, 2026",
    "time": "",
    "location": "DeVos Place",
    "lat": 42.9634,
    "lon": -85.6681,
    "category": "sport",
    "url": "https://www.experiencegr.com/event/amway-river-bank-run-2026/96727/",
    "site": "Grand Rapids"
  },
  {
    "title": "Michigan Cider Fest",
    "date": "May 16, 2026",
    "time": "",
    "location": "Grand Rapids, MI",
    "lat": 42.9626,
    "lon": -85.6669,
    "category": "outdoor",
    "url": "https://www.experiencegr.com/event/michigan-cider-fest/93529/",
    "site": "Grand Rapids"
  },
  {
    "title": "The Gilmore Piano Festival",
    "date": "May 20, 2026",
    "time": "",
    "location": "Grand Rapids, MI",
    "lat": 42.9626,
    "lon": -85.6669,
    "category": "festival",
    "url": "https://www.experiencegr.com/event/the-gilmore-piano-festival/97811/",
    "site": "Grand Rapids"
  },
  {
    "title": "Russell Dickerson",
    "date": "May 30, 2026",
    "time": "",
    "location": "Acrisure Amphitheater",
    "lat": 42.9634,
    "lon": -85.6342,
    "category": "educational",
    "url": "https://www.experiencegr.com/event/russell-dickerson/93608/",
    "site": "Grand Rapids"
  },
  {
    "title": "Grand Rapids Asian-Pacific Festival 2026",
    "date": "June 12, 2026",
    "time": "",
    "location": "Grand Rapids, MI",
    "lat": 42.9626,
    "lon": -85.6669,
    "category": "festival",
    "url": "https://www.experiencegr.com/event/grand-rapids-asian-pacific-festival-2026/96344/",
    "site": "Grand Rapids"
  },
  {
    "title": "Justice 4 All Juneteenth Jam",
    "date": "June 19, 2026",
    "time": "",
    "location": "Grand Rapids, MI",
    "lat": 42.9626,
    "lon": -85.6669,
    "category": "outdoor",
    "url": "https://www.experiencegr.com/event/justice-4-all-juneteenth-jam/96345/",
    "site": "Grand Rapids"
  },
  {
    "title": "Grand Rapids Pride Festival",
    "date": "June 20, 2026",
    "time": "",
    "location": "Grand Rapids, MI",
    "lat": 42.9626,
    "lon": -85.6669,
    "category": "festival",
    "url": "https://www.experiencegr.com/event/grand-rapids-pride-festival/97412/",
    "site": "Grand Rapids"
  },
  {
    "title": "Grand Rapids Fireworks",
    "date": "July 4, 2026",
    "time": "",
    "location": "Grand Rapids, MI",
    "lat": 42.9626,
    "lon": -85.6669,
    "category": "outdoor",
    "url": "https://www.experiencegr.com/event/grand-rapids-fireworks/96372/",
    "site": "Grand Rapids"
  }
]