[
  {
    "title": "Bird Walks",
    "date": "May 7",
    "time": "5:00 PM - 7:30 PM",
    "location": "EDSEL & ELEANOR FORD HOUSE",
    "url": "https://littleguidedetroit.com/event/bird-walks/2026-05-07/",
    "site": "Detroit Metro",
    "parsed_date": "2026-05-07",
    "lat": 42.438,
    "lon": -82.9546,
    "category": "nature"
  },
  {
    "title": "Fishing 101",
    "date": "May 7",
    "time": "6:00 PM - 7:30 PM",
    "location": "Thelma Spencer Park",
    "url": "https://littleguidedetroit.com/event/fishing-101/",
    "site": "Detroit Metro",
    "parsed_date": "2026-05-07",
    "lat": 42.3314,
    "lon": -83.0458,
    "category": "outdoor"
  },
  {
    "title": "Mother Son Dance",
    "date": "May 7",
    "time": "6:00 PM - 7:30 PM",
    "location": "WIxom Community Center",
    "url": "https://littleguidedetroit.com/event/mother-son-dance-3/",
    "site": "Detroit Metro",
    "parsed_date": "2026-05-07",
    "lat": 42.5075,
    "lon": -83.455,
    "category": "outdoor"
  },
  {
    "title": "MILK & MEET",
    "date": "May 7",
    "time": "6:00 PM - 6:30 PM",
    "location": "MSU Tollgate Farm",
    "url": "https://littleguidedetroit.com/event/milk-meet/2026-05-07/",
    "site": "Detroit Metro",
    "parsed_date": "2026-05-07",
    "lat": 42.7165,
    "lon": -84.4987,
    "category": "outdoor"
  },
  {
    "title": "GRAND RAPIDS LANTERN FESTIVAL",
    "date": "May 7",
    "time": "7:30 PM - 11:30 PM",
    "location": "John Ball Zoo",
    "url": "https://littleguidedetroit.com/event/grand-rapids-lantern-festival/2026-05-07/",
    "site": "Detroit Metro",
    "parsed_date": "2026-05-07",
    "lat": 42.9626,
    "lon": -85.6669,
    "category": "festival"
  },
  {
    "title": "Mystery of the Mayan Medallion",
    "date": "May 8",
    "time": "All Day",
    "location": "CRANBROOK SCIENCE MUSEUM",
    "url": "https://littleguidedetroit.com/event/mystery-of-the-mayan-medallion/2026-05-08/",
    "site": "Detroit Metro",
    "parsed_date": "2026-05-08",
    "lat": 42.5023,
    "lon": -83.2668,
    "category": "outdoor"
  },
  {
    "title": "PREK Story & STEAM",
    "date": "May 8",
    "time": "8:00 AM - 5:00 PM",
    "location": "DINOSAUR HILL NATURE PRESERVE",
    "url": "https://littleguidedetroit.com/event/prek-story-steam-2/2026-05-08/",
    "site": "Detroit Metro",
    "parsed_date": "2026-05-08",
    "lat": 43.0131,
    "lon": -83.6594,
    "category": "library"
  },
  {
    "title": "Blake's In Bloom",
    "date": "May 8",
    "time": "8:00 AM - 5:00 PM",
    "location": "Blake Farms and Apple Orchard",
    "url": "https://littleguidedetroit.com/event/blakes-in-bloom/2026-05-08/",
    "site": "Detroit Metro",
    "parsed_date": "2026-05-08",
    "lat": 42.448,
    "lon": -83.1265,
    "category": "outdoor"
  },
  {
    "title": "Theut's Flower Barn Tulip Festival",
    "date": "May 8",
    "time": "9:00 AM - 6:00 PM",
    "location": "Theut's Flower Barn",
    "url": "https://littleguidedetroit.com/event/theuts-flower-barn-tulip-festival/2026-05-08/",
    "site": "Detroit Metro",
    "parsed_date": "2026-05-08",
    "lat": 42.5157,
    "lon": -83.1529,
    "category": "festival"
  },
  {
    "title": "Little Creators (with Grown-Ups)",
    "date": "May 8",
    "time": "9:30 AM - 10:30 AM",
    "location": "The Suzanne Haskew Arts Center",
    "url": "https://littleguidedetroit.com/event/little-creators-with-grown-ups/2026-05-08/",
    "site": "Detroit Metro",
    "parsed_date": "2026-05-08",
    "lat": 42.2808,
    "lon": -83.743,
    "category": "outdoor"
  },
  {
    "title": "Sparking Science",
    "date": "May 8",
    "time": "10:00 AM - 11:00 AM",
    "location": "Impression 5 Science Center",
    "url": "https://littleguidedetroit.com/event/sparking-science-2/2026-05-08/",
    "site": "Detroit Metro",
    "parsed_date": "2026-05-08",
    "lat": 43.0126,
    "lon": -83.6872,
    "category": "educational"
  },
  {
    "title": "Outdoor Play Group",
    "date": "May 8",
    "time": "10:00 AM - 12:00 PM",
    "location": "Highland Township Public Library",
    "url": "https://littleguidedetroit.com/event/outdoor-play-group-2/2026-05-08/",
    "site": "Detroit Metro",
    "parsed_date": "2026-05-08",
    "lat": 42.5875,
    "lon": -83.381,
    "category": "outdoor"
  },
  {
    "title": "Free Community Play Date",
    "date": "May 8",
    "time": "10:00 AM - 12:00 PM",
    "location": "Recess Cafe",
    "url": "https://littleguidedetroit.com/event/free-community-play-date/",
    "site": "Detroit Metro",
    "parsed_date": "2026-05-08",
    "lat": 42.2808,
    "lon": -83.743,
    "category": "free"
  },
  {
    "title": "Rochester Open Swim",
    "date": "May 8",
    "time": "12:00 PM - 1:00 PM",
    "location": "Goldfish Swim School \u2013 Rochester",
    "url": "https://littleguidedetroit.com/event/rochester-open-swim/2026-05-08/",
    "site": "Detroit Metro",
    "parsed_date": "2026-05-08",
    "lat": 42.6984,
    "lon": -83.1348,
    "category": "sport"
  },
  {
    "title": "Lansing Spring Carnival",
    "date": "May 8",
    "time": "12:00 PM - 10:00 PM",
    "location": "Abundant Grace Faith Church",
    "url": "https://littleguidedetroit.com/event/lansing-spring-carnival/2026-05-08/",
    "site": "Detroit Metro",
    "parsed_date": "2026-05-08",
    "lat": 42.7284,
    "lon": -84.5454,
    "category": "festival"
  },
  {
    "title": "Baby Week Celebration with a Free Class",
    "date": "May 8",
    "time": "12:15 PM - 1:00 PM",
    "location": "GYMBOREE PLAY & MUSIC \u2013 ROCHESTER HILLS",
    "url": "https://littleguidedetroit.com/event/baby-week-celebration-with-a-free-class/2026-05-08/",
    "site": "Detroit Metro",
    "parsed_date": "2026-05-08",
    "lat": 42.6984,
    "lon": -83.1348,
    "category": "festival"
  },
  {
    "title": "Mother's Day Tea",
    "date": "May 8",
    "time": "12:30 PM - 3:00 PM",
    "location": "Meadowbrook Hall And Gardens",
    "url": "https://littleguidedetroit.com/event/mothers-day-tea/",
    "site": "Detroit Metro",
    "parsed_date": "2026-05-08",
    "lat": 42.3314,
    "lon": -83.0458,
    "category": "outdoor"
  },
  {
    "title": "Friday Guided Tours",
    "date": "May 8",
    "time": "1:00 PM - 2:00 PM",
    "location": "R.E. Olds Transportation Museum",
    "url": "https://littleguidedetroit.com/event/friday-guided-tours/2026-05-08/",
    "site": "Detroit Metro",
    "parsed_date": "2026-05-08",
    "lat": 42.3314,
    "lon": -83.0458,
    "category": "outdoor"
  },
  {
    "title": "Paint with Mommy: Mermaid Set",
    "date": "May 8",
    "time": "4:00 PM - 6:00 PM",
    "location": "Painting With A Twist",
    "url": "https://littleguidedetroit.com/event/paint-with-mommy-mermaid-set/",
    "site": "Detroit Metro",
    "parsed_date": "2026-05-08",
    "lat": 42.2808,
    "lon": -83.743,
    "category": "outdoor"
  },
  {
    "title": "Open Barn",
    "date": "May 8",
    "time": "5:00 PM - 8:00 PM",
    "location": "CHARLES L. BOWERS SCHOOL FARM",
    "url": "https://littleguidedetroit.com/event/open-barn/2026-05-08/",
    "site": "Detroit Metro",
    "parsed_date": "2026-05-08",
    "lat": 42.5948,
    "lon": -83.6945,
    "category": "outdoor"
  },
  {
    "title": "Hooves & Hikes with a Farmer",
    "date": "May 8",
    "time": "6:00 PM - 7:00 PM",
    "location": "Hess-Hathaway Park",
    "url": "https://littleguidedetroit.com/event/hooves-hikes-with-a-farmer/2026-05-08/",
    "site": "Detroit Metro",
    "parsed_date": "2026-05-08",
    "lat": 42.2451,
    "lon": -83.6171,
    "category": "nature"
  },
  {
    "title": "Canton Open Swim",
    "date": "May 8",
    "time": "6:30 PM - 8:00 PM",
    "location": "Goldfish Swim School \u2013 Canton",
    "url": "https://littleguidedetroit.com/event/canton-open-swim/2026-05-08/",
    "site": "Detroit Metro",
    "parsed_date": "2026-05-08",
    "lat": 42.3067,
    "lon": -83.4423,
    "category": "sport"
  },
  {
    "title": "Macomb Family Swim",
    "date": "May 8",
    "time": "6:30 PM - 8:00 PM",
    "location": "Goldfish Swim School \u2013 Macomb",
    "url": "https://littleguidedetroit.com/event/macomb-family-swim/2026-05-08/",
    "site": "Detroit Metro",
    "parsed_date": "2026-05-08",
    "lat": 42.6969,
    "lon": -82.9667,
    "category": "sport"
  },
  {
    "title": "Rochester Family Swim",
    "date": "May 8",
    "time": "6:30 PM - 8:00 PM",
    "location": "Goldfish Swim School \u2013 Rochester",
    "url": "https://littleguidedetroit.com/event/rochester-family-swim/2026-05-08/",
    "site": "Detroit Metro",
    "parsed_date": "2026-05-08",
    "lat": 42.6984,
    "lon": -83.1348,
    "category": "sport"
  },
  {
    "title": "Mother's Day Family Swim at Goldfish Swim School \u2013 Birmingham",
    "date": "May 8",
    "time": "6:30 PM - 8:00 PM",
    "location": "Goldfish Swim School \u2013 Birmingham",
    "url": "https://littleguidedetroit.com/event/may-flowers-open-swim/",
    "site": "Detroit Metro",
    "parsed_date": "2026-05-08",
    "lat": 42.5475,
    "lon": -83.2118,
    "category": "sport"
  },
  {
    "title": "GRAND RAPIDS LANTERN FESTIVAL",
    "date": "May 8",
    "time": "7:30 PM - 11:30 PM",
    "location": "John Ball Zoo",
    "url": "https://littleguidedetroit.com/event/grand-rapids-lantern-festival/2026-05-08/",
    "site": "Detroit Metro",
    "parsed_date": "2026-05-08",
    "lat": 42.9626,
    "lon": -85.6669,
    "category": "festival"
  },
  {
    "title": "Bat Chat",
    "date": "May 8",
    "time": "8:00 PM - 9:30 PM",
    "location": "DINOSAUR HILL NATURE PRESERVE",
    "url": "https://littleguidedetroit.com/event/bat-chat/",
    "site": "Detroit Metro",
    "parsed_date": "2026-05-08",
    "lat": 43.0131,
    "lon": -83.6594,
    "category": "outdoor"
  },
  {
    "title": "Mystery of the Mayan Medallion",
    "date": "May 9",
    "time": "All Day",
    "location": "CRANBROOK SCIENCE MUSEUM",
    "url": "https://littleguidedetroit.com/event/mystery-of-the-mayan-medallion/2026-05-09/",
    "site": "Detroit Metro",
    "parsed_date": "2026-05-09",
    "lat": 42.5023,
    "lon": -83.2668,
    "category": "outdoor"
  },
  {
    "title": "Michigan Humane's Tailgate",
    "date": "May 9",
    "time": "7:30 AM - 2:00 PM",
    "location": "Roosevelt Park",
    "url": "https://littleguidedetroit.com/event/michigan-humanes-tailgate/",
    "site": "Detroit Metro",
    "parsed_date": "2026-05-09",
    "lat": 42.3736,
    "lon": -83.0619,
    "category": "outdoor"
  },
  {
    "title": "World Migratory Bird Day at Fenner",
    "date": "May 9",
    "time": "8:00 AM - 8:00 PM",
    "location": "Fenner Nature Center",
    "url": "https://littleguidedetroit.com/event/world-migratory-bird-day-at-fenner/",
    "site": "Detroit Metro",
    "parsed_date": "2026-05-09",
    "lat": 42.7369,
    "lon": -84.4104,
    "category": "outdoor"
  },
  {
    "title": "Blake's In Bloom",
    "date": "May 9",
    "time": "8:00 AM - 5:00 PM",
    "location": "Blake Farms and Apple Orchard",
    "url": "https://littleguidedetroit.com/event/blakes-in-bloom/2026-05-09/",
    "site": "Detroit Metro",
    "parsed_date": "2026-05-09",
    "lat": 42.448,
    "lon": -83.1265,
    "category": "outdoor"
  },
  {
    "title": "Howell Touch a Truck",
    "date": "May 9",
    "time": "9:00 AM - 2:00 PM",
    "location": "Kensington Valley Outlets",
    "url": "https://littleguidedetroit.com/event/howell-touch-a-truck/",
    "site": "Detroit Metro",
    "parsed_date": "2026-05-09",
    "lat": 42.6176,
    "lon": -83.7942,
    "category": "outdoor"
  },
  {
    "title": "Open Barn",
    "date": "May 9",
    "time": "9:00 AM - 4:00 PM",
    "location": "CHARLES L. BOWERS SCHOOL FARM",
    "url": "https://littleguidedetroit.com/event/open-barn-2/2026-05-09/",
    "site": "Detroit Metro",
    "parsed_date": "2026-05-09",
    "lat": 42.5948,
    "lon": -83.6945,
    "category": "outdoor"
  },
  {
    "title": "Family Fishing Frenzy",
    "date": "May 9",
    "time": "9:00 AM - 12:00 PM",
    "location": "HERITAGE PARK \u2013 CANTON",
    "url": "https://littleguidedetroit.com/event/family-fishing-frenzy/",
    "site": "Detroit Metro",
    "parsed_date": "2026-05-09",
    "lat": 42.3067,
    "lon": -83.4423,
    "category": "outdoor"
  },
  {
    "title": "Open Climb then Play",
    "date": "May 9",
    "time": "9:00 AM - 10:30 AM",
    "location": "Troy Gym \u2013 TG4",
    "url": "https://littleguidedetroit.com/event/open-climb-then-play/2026-05-09/",
    "site": "Detroit Metro",
    "parsed_date": "2026-05-09",
    "lat": 42.6064,
    "lon": -83.1498,
    "category": "outdoor"
  },
  {
    "title": "Theut's Flower Barn Tulip Festival",
    "date": "May 9",
    "time": "9:00 AM - 6:00 PM",
    "location": "Theut's Flower Barn",
    "url": "https://littleguidedetroit.com/event/theuts-flower-barn-tulip-festival/2026-05-09/",
    "site": "Detroit Metro",
    "parsed_date": "2026-05-09",
    "lat": 42.5157,
    "lon": -83.1529,
    "category": "festival"
  },
  {
    "title": "FREE Admission Waterloo Farm Museum",
    "date": "May 9",
    "time": "10:00 AM - 4:00 PM",
    "location": "Waterloo Farm and Dewey School Museum",
    "url": "https://littleguidedetroit.com/event/free-admission-waterloo-farm-museum/",
    "site": "Detroit Metro",
    "parsed_date": "2026-05-09",
    "lat": 42.7751,
    "lon": -83.5807,
    "category": "educational"
  },
  {
    "title": "Annual Garden Party in the Alley",
    "date": "May 9",
    "time": "10:00 AM - 5:00 PM",
    "location": "Downtown Howell",
    "url": "https://littleguidedetroit.com/event/annual-garden-party-in-the-alley/",
    "site": "Detroit Metro",
    "parsed_date": "2026-05-09",
    "lat": 42.6176,
    "lon": -83.7942,
    "category": "outdoor"
  },
  {
    "title": "ART BIRMINGHAM",
    "date": "May 9",
    "time": "10:00 AM - 6:00 PM",
    "location": "Shain Park",
    "url": "https://littleguidedetroit.com/event/art-birmingham/2026-05-09/",
    "site": "Detroit Metro",
    "parsed_date": "2026-05-09",
    "lat": 42.3314,
    "lon": -83.0458,
    "category": "outdoor"
  },
  {
    "title": "Mother's Day Wildflower Walk",
    "date": "May 9",
    "time": "10:00 AM - 2:00 PM",
    "location": "Kensington Nature Center",
    "url": "https://littleguidedetroit.com/event/mothers-day-wildflower-wal/",
    "site": "Detroit Metro",
    "parsed_date": "2026-05-09",
    "lat": 42.3314,
    "lon": -83.0458,
    "category": "outdoor"
  },
  {
    "title": "Lakeshore Stroll",
    "date": "May 9",
    "time": "10:00 AM - 12:00 PM",
    "location": "Lake Erie Marshlands Museum",
    "url": "https://littleguidedetroit.com/event/lakeshore-stroll/",
    "site": "Detroit Metro",
    "parsed_date": "2026-05-09",
    "lat": 42.3314,
    "lon": -83.0458,
    "category": "outdoor"
  },
  {
    "title": "Garden Club: Indian Springs",
    "date": "May 9",
    "time": "10:00 AM - 12:00 PM",
    "location": "Indian Springs Environmental Discovery Center",
    "url": "https://littleguidedetroit.com/event/garden-club-indian-springs/2026-05-09/",
    "site": "Detroit Metro",
    "parsed_date": "2026-05-09",
    "lat": 42.3314,
    "lon": -83.0458,
    "category": "outdoor"
  },
  {
    "title": "1 Free Kid's Meal with Purchase of 1 Pizza at Venezia Restaurant",
    "date": "Thursday May 7, 2026",
    "time": "All day",
    "location": "",
    "url": "https://www.southhavenmi.com/events/details/1-free-kid-s-meal-with-purchase-of-1-pizza-at-venezia-restaurant-05-07-2026-14554",
    "site": "South Haven",
    "parsed_date": "2026-05-07",
    "lat": 42.4059,
    "lon": -86.3163,
    "category": "free"
  },
  {
    "title": "Classic Car Rally",
    "date": "Thursday May 7, 2026",
    "time": "All day",
    "location": "",
    "url": "https://www.southhavenmi.com/events/details/classic-car-rally-14904",
    "site": "South Haven",
    "parsed_date": "2026-05-07",
    "lat": 42.4059,
    "lon": -86.3163,
    "category": "educational"
  },
  {
    "title": "Story Time & Crafts",
    "date": "Thursday May 7, 2026",
    "time": "11:00",
    "location": "",
    "url": "https://www.southhavenmi.com/events/details/story-time-crafts-05-07-2026-10662",
    "site": "South Haven",
    "parsed_date": "2026-05-07",
    "lat": 42.4059,
    "lon": -86.3163,
    "category": "library"
  },
  {
    "title": "National Day of Prayer Gathering @ City Hall",
    "date": "Thursday May 7, 2026",
    "time": "12:00",
    "location": "",
    "url": "https://www.southhavenmi.com/events/details/national-day-of-prayer-gathering-city-hall-14605",
    "site": "South Haven",
    "parsed_date": "2026-05-07",
    "lat": 42.4059,
    "lon": -86.3163,
    "category": "outdoor"
  },
  {
    "title": "Kruger Comics MTG Secrets of Strixhaven Commander Party",
    "date": "Thursday May 7, 2026",
    "time": "13:00",
    "location": "",
    "url": "https://www.southhavenmi.com/events/details/kruger-comics-mtg-secrets-of-strixhaven-commander-party-13903",
    "site": "South Haven",
    "parsed_date": "2026-05-07",
    "lat": 42.4059,
    "lon": -86.3163,
    "category": "outdoor"
  },
  {
    "title": "Live Music at Dune Bird: Chris Skellinger",
    "date": "May 7, 2026",
    "time": "All day",
    "location": "Dune Bird Winery",
    "url": "/event-detail/live-music-at-dune-bird%3a-chris-skellinger/25578/",
    "site": "Traverse City",
    "parsed_date": "2026-05-07",
    "lat": 44.795,
    "lon": -85.585,
    "category": "outdoor"
  },
  {
    "title": "Meet the Brothers of bigLITTLE Wines",
    "date": "May 7, 2026",
    "time": "All day",
    "location": "Big Little Wines",
    "url": "/event-detail/meet-the-brothers-of-biglittle-wines/25535/",
    "site": "Traverse City",
    "parsed_date": "2026-05-07",
    "lat": 44.7631,
    "lon": -85.6206,
    "category": "outdoor"
  },
  {
    "title": "The Chef's Table Dinner Experience",
    "date": "Recurring weekly on Thursday",
    "time": "All day",
    "location": "Boathouse Restaurant",
    "url": "/event-detail/the-chefs-table-dinner-experience/24619/",
    "site": "Traverse City",
    "parsed_date": "unknown",
    "lat": 44.7631,
    "lon": -85.6206,
    "category": "outdoor"
  },
  {
    "title": "Tuscan Bistro Nights",
    "date": "Dates vary between May 6, 2026 - May 9, 2026",
    "time": "All day",
    "location": "The Grille at Grand Traverse Resort and Spa",
    "url": "/event-detail/tuscan-bistro-nights/25603/",
    "site": "Traverse City",
    "parsed_date": "unknown",
    "lat": 44.7631,
    "lon": -85.6206,
    "category": "outdoor"
  },
  {
    "title": "Traverse City Uncorked 2026",
    "date": "Recurring daily until May 10, 2026",
    "time": "All day",
    "location": "Traverse Wine Coast Wineries",
    "url": "/event-detail/traverse-city-uncorked-2026/23740/",
    "site": "Traverse City",
    "parsed_date": "unknown",
    "lat": 44.78,
    "lon": -85.59,
    "category": "outdoor"
  },
  {
    "title": "Brushstrokes for Healing at Peace Ranch",
    "date": "May 7, 2026",
    "time": "All day",
    "location": "Peace Ranch",
    "url": "/event-detail/brushstrokes-for-healing-at-peace-ranch/25871/",
    "site": "Traverse City",
    "parsed_date": "2026-05-07",
    "lat": 44.7631,
    "lon": -85.6206,
    "category": "outdoor"
  },
  {
    "title": "Interlochen Center for the Arts 2026 Presents: An Evening with Aimee Nezhukumatathil",
    "date": "May 7, 2026",
    "time": "All day",
    "location": "The Writing House",
    "url": "/event-detail/interlochen-center-for-the-arts-2026-presents%3a-an-evening-with-aimee-nezhukumatathil/25846/",
    "site": "Traverse City",
    "parsed_date": "2026-05-07",
    "lat": 44.7631,
    "lon": -85.6206,
    "category": "outdoor"
  },
  {
    "title": "Live Music at Dune Bird Winery",
    "date": "Recurring weekly on Sunday, Thursday",
    "time": "All day",
    "location": "Dune Bird Winery",
    "url": "/event-detail/live-music-at-dune-bird-winery/25817/",
    "site": "Traverse City",
    "parsed_date": "unknown",
    "lat": 44.795,
    "lon": -85.585,
    "category": "outdoor"
  },
  {
    "title": "Open Mic Night @ the Cellars",
    "date": "Recurring weekly on Thursday",
    "time": "All day",
    "location": "St. Ambrose Cellars",
    "url": "/event-detail/open-mic-night-%40-the-cellars/25095/",
    "site": "Traverse City",
    "parsed_date": "unknown",
    "lat": 44.7631,
    "lon": -85.6206,
    "category": "outdoor"
  },
  {
    "title": "Signature Experience  A Taste of Brengman",
    "date": "Recurring daily until October 16, 2026",
    "time": "All day",
    "location": "Brengman Family Wines",
    "url": "/event-detail/signature-experience-a-taste-of-brengman/24870/",
    "site": "Traverse City",
    "parsed_date": "unknown",
    "lat": 44.78,
    "lon": -85.59,
    "category": "nature"
  },
  {
    "title": "Sound Bites: Live Music with Andrea & Co.",
    "date": "May 7, 2026",
    "time": "All day",
    "location": "Chateau Grand Traverse",
    "url": "/event-detail/sound-bites%3a-live-music-with-andrea-%26-co/25612/",
    "site": "Traverse City",
    "parsed_date": "2026-05-07",
    "lat": 44.7631,
    "lon": -85.6206,
    "category": "outdoor"
  },
  {
    "title": "The Cookbook Dinner Series presents In the Catbird Seat",
    "date": "Recurring daily until May 10, 2026",
    "time": "All day",
    "location": "Amical",
    "url": "/event-detail/the-cookbook-dinner-series-presents-in-the-catbird-seat/24180/",
    "site": "Traverse City",
    "parsed_date": "unknown",
    "lat": 44.7631,
    "lon": -85.6206,
    "category": "library"
  },
  {
    "title": "Thursday Night Trivia at Iron Fish Distillery",
    "date": "Recurring weekly on Thursday",
    "time": "All day",
    "location": "Iron Fish Distillery",
    "url": "/event-detail/thursday-night-trivia-at-iron-fish-distillery/24796/",
    "site": "Traverse City",
    "parsed_date": "unknown",
    "lat": 44.7631,
    "lon": -85.6206,
    "category": "outdoor"
  },
  {
    "title": "Live Music at French Valley",
    "date": "Recurring weekly on Monday, Thursday",
    "time": "All day",
    "location": "French Valley Vineyards",
    "url": "/event-detail/live-music-at-french-valley/25818/",
    "site": "Traverse City",
    "parsed_date": "unknown",
    "lat": 44.7631,
    "lon": -85.6206,
    "category": "outdoor"
  },
  {
    "title": "Monthly Singles Night",
    "date": "May 7, 2026",
    "time": "All day",
    "location": "Traverse City Whiskey Co.",
    "url": "/event-detail/monthly-singles-night/25497/",
    "site": "Traverse City",
    "parsed_date": "2026-05-07",
    "lat": 44.7631,
    "lon": -85.6206,
    "category": "outdoor"
  },
  {
    "title": "Musical Fountain Testing Nights",
    "date": "May 8, 2026",
    "time": "9:30 pm - 11:00 pm",
    "location": "",
    "url": "https://visitgrandhaven.com/events/musical-fountain-testing-nights/",
    "site": "Grand Haven",
    "parsed_date": "2026-05-08",
    "lat": 43.065,
    "lon": -86.227,
    "category": "outdoor"
  },
  {
    "title": "Grand Haven Farmers Market",
    "date": "May 9, 2026",
    "time": "8:00 am - 1:00 pm",
    "location": "",
    "url": "https://visitgrandhaven.com/events/grand-haven-farmers-market-2/grand-haven-farmers-market-2026-05-09/",
    "site": "Grand Haven",
    "parsed_date": "2026-05-09",
    "lat": 43.065,
    "lon": -86.227,
    "category": "outdoor"
  },
  {
    "title": "Tote Club Days",
    "date": "May 9, 2026",
    "time": "10:00 am - 8:00 pm",
    "location": "",
    "url": "https://visitgrandhaven.com/events/tote-club-days-2/",
    "site": "Grand Haven",
    "parsed_date": "2026-05-09",
    "lat": 43.065,
    "lon": -86.227,
    "category": "outdoor"
  },
  {
    "title": "Mother's Day Luncheon",
    "date": "May 9, 2026",
    "time": "12:00 pm - 2:00 pm",
    "location": "",
    "url": "https://visitgrandhaven.com/events/mothers-day-luncheon/",
    "site": "Grand Haven",
    "parsed_date": "2026-05-09",
    "lat": 43.065,
    "lon": -86.227,
    "category": "outdoor"
  },
  {
    "title": "Musical Fountain Testing Nights",
    "date": "May 9, 2026",
    "time": "9:30 pm - 11:00 pm",
    "location": "",
    "url": "https://visitgrandhaven.com/events/musical-fountain-testing-nights/musical-fountain-testing-nights-2026-05-09/",
    "site": "Grand Haven",
    "parsed_date": "2026-05-09",
    "lat": 43.065,
    "lon": -86.227,
    "category": "outdoor"
  },
  {
    "title": "Musical Fountain Testing Nights",
    "date": "May 15, 2026",
    "time": "9:30 pm - 11:00 pm",
    "location": "",
    "url": "https://visitgrandhaven.com/events/musical-fountain-testing-nights/musical-fountain-testing-nights/",
    "site": "Grand Haven",
    "parsed_date": "2026-05-15",
    "lat": 43.065,
    "lon": -86.227,
    "category": "outdoor"
  },
  {
    "title": "The Kite Festival at Grand Haven",
    "date": "May 16, 2026",
    "time": "10:00 am - 5:00 pm",
    "location": "",
    "url": "https://visitgrandhaven.com/events/the-kite-festival-at-grand-haven/",
    "site": "Grand Haven",
    "parsed_date": "2026-05-16",
    "lat": 43.065,
    "lon": -86.227,
    "category": "festival"
  },
  {
    "title": "Musical Fountain Testing Nights",
    "date": "May 16, 2026",
    "time": "9:30 pm - 11:00 pm",
    "location": "",
    "url": "https://visitgrandhaven.com/events/musical-fountain-testing-nights/musical-fountain-testing-nights-2/",
    "site": "Grand Haven",
    "parsed_date": "2026-05-16",
    "lat": 43.065,
    "lon": -86.227,
    "category": "outdoor"
  },
  {
    "title": "1st Annual Club Crawl Poker Run",
    "date": "May 16, 2026",
    "time": "2:00 pm - 7:00 pm",
    "location": "",
    "url": "https://visitgrandhaven.com/events/1st-annual-club-crawl/",
    "site": "Grand Haven",
    "parsed_date": "2026-05-16",
    "lat": 43.065,
    "lon": -86.227,
    "category": "sport"
  },
  {
    "title": "Grand Haven Farmers Market",
    "date": "May 16, 2026",
    "time": "8:00 am - 1:00 pm",
    "location": "",
    "url": "https://visitgrandhaven.com/events/grand-haven-farmers-market-2/grand-haven-farmers-market-2026-05-16/",
    "site": "Grand Haven",
    "parsed_date": "2026-05-16",
    "lat": 43.065,
    "lon": -86.227,
    "category": "outdoor"
  },
  {
    "title": "Armed Services Marathon",
    "date": "May 17, 2026",
    "time": "7:00 am - 2:00 pm",
    "location": "",
    "url": "https://visitgrandhaven.com/events/armed-services-marathon/",
    "site": "Grand Haven",
    "parsed_date": "2026-05-17",
    "lat": 43.065,
    "lon": -86.227,
    "category": "outdoor"
  },
  {
    "title": "The Kite Festival at Grand Haven",
    "date": "May 17, 2026",
    "time": "11:00 am - 5:00 pm",
    "location": "",
    "url": "https://visitgrandhaven.com/events/the-kite-festival-at-grand-haven/the-kite-festival-at-grand-haven-2026-05-17/",
    "site": "Grand Haven",
    "parsed_date": "2026-05-17",
    "lat": 43.065,
    "lon": -86.227,
    "category": "festival"
  },
  {
    "title": "SDB Author Event",
    "date": "May 7",
    "time": "7:00 pm",
    "location": "Sleepy Dog Books",
    "url": "https://meetmtp.com/event/sdb-author-event/",
    "site": "Mt. Pleasant",
    "parsed_date": "2026-05-07",
    "lat": 43.5975,
    "lon": -84.7423,
    "category": "outdoor"
  },
  {
    "title": "Legislative Breakfast",
    "date": "May 8",
    "time": "7:15 am",
    "location": "Soaring Eagle Casino & Resort",
    "url": "https://meetmtp.com/event/legislative-breakfast/",
    "site": "Mt. Pleasant",
    "parsed_date": "2026-05-08",
    "lat": 43.5975,
    "lon": -84.7423,
    "category": "outdoor"
  },
  {
    "title": "Rumors",
    "date": "May 8",
    "time": "7:00 pm",
    "location": "Broadway Theatre",
    "url": "https://meetmtp.com/event/rumors/",
    "site": "Mt. Pleasant",
    "parsed_date": "2026-05-08",
    "lat": 43.5975,
    "lon": -84.7423,
    "category": "outdoor"
  },
  {
    "title": "Jeff Dunham",
    "date": "May 8",
    "time": "8:00 pm",
    "location": "Soaring Eagle Casino",
    "url": "https://meetmtp.com/event/jeff-dunham/",
    "site": "Mt. Pleasant",
    "parsed_date": "2026-05-08",
    "lat": 43.5975,
    "lon": -84.7423,
    "category": "outdoor"
  },
  {
    "title": "Pressed Botanical Teacups",
    "date": "May 9",
    "time": "1:00 pm",
    "location": "Art Reach of Mid Michigan",
    "url": "https://meetmtp.com/event/pressed-botanical-teacups/",
    "site": "Mt. Pleasant",
    "parsed_date": "2026-05-09",
    "lat": 43.5975,
    "lon": -84.7423,
    "category": "outdoor"
  },
  {
    "title": "The Tempations and the Four Tops",
    "date": "May 9",
    "time": "8:00 pm",
    "location": "",
    "url": "https://meetmtp.com/event/the-tempations-and-the-four-tops/",
    "site": "Mt. Pleasant",
    "parsed_date": "2026-05-09",
    "lat": 43.5975,
    "lon": -84.7423,
    "category": "outdoor"
  },
  {
    "title": "Michigan Orchids in Watercolor",
    "date": "May 12",
    "time": "3:00 pm",
    "location": "Art Reach of Mid Michigan",
    "url": "https://meetmtp.com/event/michigan-orchids-in-watercolor/",
    "site": "Mt. Pleasant",
    "parsed_date": "2026-05-12",
    "lat": 43.5975,
    "lon": -84.7423,
    "category": "outdoor"
  },
  {
    "title": "Chippewa Valley Audubon Club Program",
    "date": "May 13",
    "time": "7:00 pm",
    "location": "Veterans Memorial Library",
    "url": "https://meetmtp.com/event/chippewa-valley-audubon-club-program/",
    "site": "Mt. Pleasant",
    "parsed_date": "2026-05-13",
    "lat": 43.5975,
    "lon": -84.7423,
    "category": "outdoor"
  },
  {
    "title": "Middle Michigan Development Corporation's Annual  Meeting",
    "date": "May 8",
    "time": "11:30 am",
    "location": "Courtyard Marriot",
    "url": "https://meetmtp.com/event/middle-michigan-development-corporations-annual-meeting/",
    "site": "Mt. Pleasant",
    "parsed_date": "2026-05-08",
    "lat": 43.5975,
    "lon": -84.7423,
    "category": "outdoor"
  },
  {
    "title": "Kids and Culture",
    "date": "May 9",
    "time": "10:00 am",
    "location": "Central Michigan University Museum of Cultural and Natural History",
    "url": "https://meetmtp.com/event/kids-and-culture/",
    "site": "Mt. Pleasant",
    "parsed_date": "2026-05-09",
    "lat": 43.5975,
    "lon": -84.7423,
    "category": "outdoor"
  },
  {
    "title": "LIVE Virtual Author Talk: How to Robot-Proof Your Kids (and Yourself) with Dr. Vivienne Ming",
    "date": "May 12",
    "time": "2:00 pm",
    "location": "Veterans Memorial Library Annex",
    "url": "https://meetmtp.com/event/live-virtual-author-talk-how-to-robot-proof-your-kids-and-yourself-with-dr-vivienne-ming/",
    "site": "Mt. Pleasant",
    "parsed_date": "2026-05-12",
    "lat": 43.5975,
    "lon": -84.7423,
    "category": "outdoor"
  },
  {
    "title": "Birds on the Brink: Watercolor Studies",
    "date": "May 7",
    "time": "2:00 pm",
    "location": "Art Reach of Mid Michigan",
    "url": "https://meetmtp.com/event/birds-on-the-brink-watercolor-studies/",
    "site": "Mt. Pleasant",
    "parsed_date": "2026-05-07",
    "lat": 43.5975,
    "lon": -84.7423,
    "category": "outdoor"
  },
  {
    "title": "Painting with Pups",
    "date": "May 12",
    "time": "3:00 pm",
    "location": "Mt. Pleasant Discovery Museum",
    "url": "https://meetmtp.com/event/painting-with-pups/",
    "site": "Mt. Pleasant",
    "parsed_date": "2026-05-12",
    "lat": 43.5975,
    "lon": -84.7423,
    "category": "outdoor"
  },
  {
    "title": "May Lunch and Learn Social Media: The Good, The Bad, and The Ugly",
    "date": "May 14",
    "time": "12:30 pm",
    "location": "Veterans Memorial Library Annex",
    "url": "https://meetmtp.com/event/may-lunch-and-learn-social-media-the-good-the-bad-and-the-ugly/",
    "site": "Mt. Pleasant",
    "parsed_date": "2026-05-14",
    "lat": 43.5975,
    "lon": -84.7423,
    "category": "educational"
  },
  {
    "title": "The Care Games 2026",
    "date": "May 14",
    "time": "5:30 pm",
    "location": "PohlCat Golf Course",
    "url": "https://meetmtp.com/event/the-care-games-2026-2/",
    "site": "Mt. Pleasant",
    "parsed_date": "2026-05-14",
    "lat": 43.5975,
    "lon": -84.7423,
    "category": "outdoor"
  },
  {
    "title": "Club Create of Mid Michigan",
    "date": "May 14",
    "time": "5:30 pm",
    "location": "Art Reach of Mid Michigan",
    "url": "https://meetmtp.com/event/club-create-of-mid-michigan/",
    "site": "Mt. Pleasant",
    "parsed_date": "2026-05-14",
    "lat": 43.5975,
    "lon": -84.7423,
    "category": "outdoor"
  },
  {
    "title": "The Care Games 2026",
    "date": "May 14",
    "time": "5:30 pm",
    "location": "PohlCat Golf Course",
    "url": "https://meetmtp.com/event/the-care-games-2026/",
    "site": "Mt. Pleasant",
    "parsed_date": "2026-05-14",
    "lat": 43.5975,
    "lon": -84.7423,
    "category": "outdoor"
  },
  {
    "title": "Watercolor Plein Air for Beginners",
    "date": "May 15",
    "time": "9:00 am",
    "location": "Art Reach of Mid Michigan",
    "url": "https://meetmtp.com/event/watercolor-plein-air-for-beginners/",
    "site": "Mt. Pleasant",
    "parsed_date": "2026-05-15",
    "lat": 43.5975,
    "lon": -84.7423,
    "category": "outdoor"
  },
  {
    "title": "Yarn Dyeing Workshop",
    "date": "May 16",
    "time": "11:00 am",
    "location": "Art Reach of Mid Michigan",
    "url": "https://meetmtp.com/event/yarn-dyeing-workshop/",
    "site": "Mt. Pleasant",
    "parsed_date": "2026-05-16",
    "lat": 43.5975,
    "lon": -84.7423,
    "category": "educational"
  },
  {
    "title": "Public Safety Expo",
    "date": "May 16",
    "time": "11:00 am",
    "location": "Downtown Mt. Pleasant",
    "url": "https://meetmtp.com/event/public-safety-expo/",
    "site": "Mt. Pleasant",
    "parsed_date": "2026-05-16",
    "lat": 43.5975,
    "lon": -84.7423,
    "category": "outdoor"
  },
  {
    "title": "Sew What! Patchwork Pockets",
    "date": "May 16",
    "time": "1:00 pm",
    "location": "Art Reach of Mid Michigan",
    "url": "https://meetmtp.com/event/sew-what-patchwork-pockets-2/",
    "site": "Mt. Pleasant",
    "parsed_date": "2026-05-16",
    "lat": 43.5975,
    "lon": -84.7423,
    "category": "outdoor"
  },
  {
    "title": "Sew What! Patchwork Pockets",
    "date": "May 16",
    "time": "1:00 pm",
    "location": "Art Reach of Mid Michigan",
    "url": "https://meetmtp.com/event/sew-what-patchwork-pockets/",
    "site": "Mt. Pleasant",
    "parsed_date": "2026-05-16",
    "lat": 43.5975,
    "lon": -84.7423,
    "category": "outdoor"
  },
  {
    "title": "Wine & Watercolors",
    "date": "May 16",
    "time": "6:00 pm",
    "location": "Art Reach of Mid Michigan",
    "url": "https://meetmtp.com/event/wine-watercolors/",
    "site": "Mt. Pleasant",
    "parsed_date": "2026-05-16",
    "lat": 43.5975,
    "lon": -84.7423,
    "category": "outdoor"
  },
  {
    "title": "Monster Truck Throwdown",
    "date": "May 17",
    "time": "11:00 am",
    "location": "Crystal Motor Speedway",
    "url": "https://meetmtp.com/event/monster-truck-throwdown/",
    "site": "Mt. Pleasant",
    "parsed_date": "2026-05-17",
    "lat": 43.5975,
    "lon": -84.7423,
    "category": "outdoor"
  },
  {
    "title": "Wee Wednesdays",
    "date": "May 20",
    "time": "10:00 am",
    "location": "Art Reach of Mid Michigan",
    "url": "https://meetmtp.com/event/wee-wednesdays-2/",
    "site": "Mt. Pleasant",
    "parsed_date": "2026-05-20",
    "lat": 43.5975,
    "lon": -84.7423,
    "category": "outdoor"
  },
  {
    "title": "Mini Masters",
    "date": "May 21",
    "time": "5:30 pm",
    "location": "Art Reach of Mid Michigan",
    "url": "https://meetmtp.com/event/mini-masters-2/",
    "site": "Mt. Pleasant",
    "parsed_date": "2026-05-21",
    "lat": 43.5975,
    "lon": -84.7423,
    "category": "outdoor"
  },
  {
    "title": "Alma Highland Festival and Games",
    "date": "May 22",
    "time": "All day",
    "location": "Alma College",
    "url": "https://meetmtp.com/event/alma-highland-festival-and-games/",
    "site": "Mt. Pleasant",
    "parsed_date": "2026-05-22",
    "lat": 43.5975,
    "lon": -84.7423,
    "category": "festival"
  },
  {
    "title": "Figure Drawing Club",
    "date": "May 22",
    "time": "5:30 pm",
    "location": "Art Reach of Mid Michigan",
    "url": "https://meetmtp.com/event/figure-drawing-club/",
    "site": "Mt. Pleasant",
    "parsed_date": "2026-05-22",
    "lat": 43.5975,
    "lon": -84.7423,
    "category": "outdoor"
  },
  {
    "title": "SDB Author Event",
    "date": "May 23",
    "time": "10:00 am",
    "location": "Sleepy Dog Books",
    "url": "https://meetmtp.com/event/sdb-author-event-2/",
    "site": "Mt. Pleasant",
    "parsed_date": "2026-05-23",
    "lat": 43.5975,
    "lon": -84.7423,
    "category": "outdoor"
  },
  {
    "title": "Oil Painting Intensive: Floral Still Life",
    "date": "May 23",
    "time": "2:00 pm",
    "location": "Art Reach of Mid Michigan",
    "url": "https://meetmtp.com/event/oil-painting-intensive-floral-still-life/",
    "site": "Mt. Pleasant",
    "parsed_date": "2026-05-23",
    "lat": 43.5975,
    "lon": -84.7423,
    "category": "outdoor"
  },
  {
    "title": "Kansas",
    "date": "May 23",
    "time": "7:00 pm",
    "location": "Soaring Eagle Casino",
    "url": "https://meetmtp.com/event/kansas/",
    "site": "Mt. Pleasant",
    "parsed_date": "2026-05-23",
    "lat": 43.5975,
    "lon": -84.7423,
    "category": "outdoor"
  },
  {
    "title": "Club Create of Mid Michigan",
    "date": "May 27",
    "time": "10:30 am",
    "location": "Art Reach of Mid Michigan",
    "url": "https://meetmtp.com/event/club-create-of-mid-michigan-2/",
    "site": "Mt. Pleasant",
    "parsed_date": "2026-05-27",
    "lat": 43.5975,
    "lon": -84.7423,
    "category": "outdoor"
  },
  {
    "title": "Alcohol Ink: Tulips",
    "date": "May 27",
    "time": "1:00 pm",
    "location": "Art Reach of Mid Michigan",
    "url": "https://meetmtp.com/event/alcohol-ink-tulips/",
    "site": "Mt. Pleasant",
    "parsed_date": "2026-05-27",
    "lat": 43.5975,
    "lon": -84.7423,
    "category": "outdoor"
  },
  {
    "title": "United for Moms",
    "date": "May 28",
    "time": "10:00 am",
    "location": "Island Park",
    "url": "https://meetmtp.com/event/united-for-moms/",
    "site": "Mt. Pleasant",
    "parsed_date": "2026-05-28",
    "lat": 43.5975,
    "lon": -84.7423,
    "category": "outdoor"
  },
  {
    "title": "Special Olympics Michigan State Summer Games",
    "date": "May 28",
    "time": "6:00 pm",
    "location": "Central Michigan University",
    "url": "https://meetmtp.com/event/special-olympics-michigan-state-summer-games/",
    "site": "Mt. Pleasant",
    "parsed_date": "2026-05-28",
    "lat": 43.5975,
    "lon": -84.7423,
    "category": "outdoor"
  },
  {
    "title": "Junk Journaling: A Visual Diary of You",
    "date": "May 29",
    "time": "5:30 pm",
    "location": "Art Reach of Mid Michigan",
    "url": "https://meetmtp.com/event/junk-journaling-a-visual-diary-of-you/",
    "site": "Mt. Pleasant",
    "parsed_date": "2026-05-29",
    "lat": 43.5975,
    "lon": -84.7423,
    "category": "outdoor"
  },
  {
    "title": "Paint the Pavement",
    "date": "May 30",
    "time": "7:00 am",
    "location": "Art Reach of Mid Michigan",
    "url": "https://meetmtp.com/event/paint-the-pavement/",
    "site": "Mt. Pleasant",
    "parsed_date": "2026-05-30",
    "lat": 43.5975,
    "lon": -84.7423,
    "category": "outdoor"
  },
  {
    "title": "Battle Creek Reads: \"West With Giraffes\"",
    "date": "May 07",
    "time": "All day",
    "location": "Binder Park Zoo",
    "url": "https://www.battlecreekvisitors.org/event/battle-creek-reads%3a-west-with-giraffes/1207/",
    "site": "Battle Creek",
    "parsed_date": "2026-05-07",
    "lat": 42.3211,
    "lon": -85.1797,
    "category": "outdoor"
  },
  {
    "title": "Battle of the Creek Bands",
    "date": "May 15",
    "time": "All day",
    "location": "New Holland Brewing",
    "url": "https://www.battlecreekvisitors.org/event/battle-of-the-creek-bands/1166/",
    "site": "Battle Creek",
    "parsed_date": "2026-05-15",
    "lat": 42.3211,
    "lon": -85.1797,
    "category": "outdoor"
  },
  {
    "title": "Spring into the Arts",
    "date": "May 15",
    "time": "All day",
    "location": "",
    "url": "https://www.battlecreekvisitors.org/event/spring-into-the-arts/1204/",
    "site": "Battle Creek",
    "parsed_date": "2026-05-15",
    "lat": 42.3211,
    "lon": -85.1797,
    "category": "outdoor"
  },
  {
    "title": "Memorial Day Parade",
    "date": "May 25",
    "time": "All day",
    "location": "",
    "url": "https://www.battlecreekvisitors.org/event/memorial-day-parade/1250/",
    "site": "Battle Creek",
    "parsed_date": "2026-05-25",
    "lat": 42.3211,
    "lon": -85.1797,
    "category": "outdoor"
  },
  {
    "title": "Battle Creek Community Spelling Bee",
    "date": "Jun 06",
    "time": "All day",
    "location": "",
    "url": "https://www.battlecreekvisitors.org/event/battle-creek-community-spelling-bee/1201/",
    "site": "Battle Creek",
    "parsed_date": "2026-06-06",
    "lat": 42.3211,
    "lon": -85.1797,
    "category": "outdoor"
  },
  {
    "title": "Yes! Trio featuring Ali Jackson, Aaron Goldberg & Omer Avital",
    "date": "May 07",
    "time": "All day",
    "location": "",
    "url": "https://www.battlecreekvisitors.org/event/yes!-trio-featuring-ali-jackson-aaron-goldberg-%26-omer-avital/1115/",
    "site": "Battle Creek",
    "parsed_date": "2026-05-07",
    "lat": 42.3211,
    "lon": -85.1797,
    "category": "outdoor"
  },
  {
    "title": "Corks & Crafts Tasting Event",
    "date": "May 09",
    "time": "All day",
    "location": "",
    "url": "https://www.battlecreekvisitors.org/event/corks-%26-crafts-tasting-event/1130/",
    "site": "Battle Creek",
    "parsed_date": "2026-05-09",
    "lat": 42.3211,
    "lon": -85.1797,
    "category": "outdoor"
  },
  {
    "title": "Corks & Crafts Tasting Event",
    "date": "May 09",
    "time": "All day",
    "location": "",
    "url": "https://www.battlecreekvisitors.org/event/corks-%26-crafts-tasting-event/1169/",
    "site": "Battle Creek",
    "parsed_date": "2026-05-09",
    "lat": 42.3211,
    "lon": -85.1797,
    "category": "outdoor"
  },
  {
    "title": "Marshall Museums Dollar Day",
    "date": "May 09",
    "time": "All day",
    "location": "",
    "url": "https://www.battlecreekvisitors.org/event/marshall-museums-dollar-day/1245/",
    "site": "Battle Creek",
    "parsed_date": "2026-05-09",
    "lat": 42.3211,
    "lon": -85.1797,
    "category": "educational"
  },
  {
    "title": "Brooks Nature Area: World Migratory Bird Hike Day",
    "date": "May 09",
    "time": "All day",
    "location": "Brooks Nature Area",
    "url": "https://www.battlecreekvisitors.org/event/brooks-nature-area%3a-world-migratory-bird-hike-day/1246/",
    "site": "Battle Creek",
    "parsed_date": "2026-05-09",
    "lat": 42.3211,
    "lon": -85.1797,
    "category": "nature"
  },
  {
    "title": "Upheaval Festival 2026",
    "date": "Jul 17",
    "time": "All day",
    "location": "Belknap Park",
    "url": "https://www.experiencegr.com/event/upheaval-festival-2026/96783/",
    "site": "Grand Rapids",
    "parsed_date": "2026-07-17",
    "lat": 42.9634,
    "lon": -85.6681,
    "category": "festival"
  },
  {
    "title": "Breakaway Music Festival 2026",
    "date": "Aug 14",
    "time": "All day",
    "location": "",
    "url": "https://www.experiencegr.com/event/breakaway-music-festival-2026/96782/",
    "site": "Grand Rapids",
    "parsed_date": "2026-08-14",
    "lat": 42.9634,
    "lon": -85.6681,
    "category": "festival"
  },
  {
    "title": "Burning Foot Beer Festival 2026",
    "date": "Aug 29",
    "time": "All day",
    "location": "Heritage Landing Park",
    "url": "https://www.experiencegr.com/event/burning-foot-beer-festival-2026/96385/",
    "site": "Grand Rapids",
    "parsed_date": "2026-08-29",
    "lat": 42.9557,
    "lon": -85.6684,
    "category": "festival"
  },
  {
    "title": "Pitbull",
    "date": "Sep 10",
    "time": "All day",
    "location": "Acrisure Amphitheater",
    "url": "https://www.experiencegr.com/event/pitbull/96465/",
    "site": "Grand Rapids",
    "parsed_date": "2026-09-10",
    "lat": 42.9634,
    "lon": -85.6342,
    "category": "outdoor"
  },
  {
    "title": "The Grand Rapids Lantern Festival",
    "date": "May 07",
    "time": "All day",
    "location": "John Ball Zoo",
    "url": "https://www.experiencegr.com/event/the-grand-rapids-lantern-festival/96053/",
    "site": "Grand Rapids",
    "parsed_date": "2026-05-07",
    "lat": 42.9626,
    "lon": -85.6669,
    "category": "festival"
  },
  {
    "title": "Tulip Time Festival 2026",
    "date": "May 07",
    "time": "All day",
    "location": "Tulip Time Festival",
    "url": "https://www.experiencegr.com/event/tulip-time-festival-2026/88781/",
    "site": "Grand Rapids",
    "parsed_date": "2026-05-07",
    "lat": 42.9634,
    "lon": -85.6681,
    "category": "festival"
  },
  {
    "title": "Cider Week GR",
    "date": "May 08",
    "time": "All day",
    "location": "",
    "url": "https://www.experiencegr.com/event/cider-week-gr/95393/",
    "site": "Grand Rapids",
    "parsed_date": "2026-05-08",
    "lat": 42.9634,
    "lon": -85.6681,
    "category": "outdoor"
  },
  {
    "title": "Amway River Bank Run 2026",
    "date": "May 09",
    "time": "All day",
    "location": "DeVos Place Convention Center",
    "url": "https://www.experiencegr.com/event/amway-river-bank-run-2026/96727/",
    "site": "Grand Rapids",
    "parsed_date": "2026-05-09",
    "lat": 42.9634,
    "lon": -85.6681,
    "category": "sport"
  },
  {
    "title": "Michigan Cider Fest",
    "date": "May 16",
    "time": "All day",
    "location": "Rosa Parks Circle",
    "url": "https://www.experiencegr.com/event/michigan-cider-fest/93529/",
    "site": "Grand Rapids",
    "parsed_date": "2026-05-16",
    "lat": 42.9634,
    "lon": -85.6681,
    "category": "outdoor"
  },
  {
    "title": "The Gilmore Piano Festival",
    "date": "May 20",
    "time": "All day",
    "location": "Frederik Meijer Gardens & Sculpture Park",
    "url": "https://www.experiencegr.com/event/the-gilmore-piano-festival/97811/",
    "site": "Grand Rapids",
    "parsed_date": "2026-05-20",
    "lat": 42.9634,
    "lon": -85.6681,
    "category": "festival"
  },
  {
    "title": "Russell Dickerson",
    "date": "May 30",
    "time": "All day",
    "location": "Acrisure Amphitheater",
    "url": "https://www.experiencegr.com/event/russell-dickerson/93608/",
    "site": "Grand Rapids",
    "parsed_date": "2026-05-30",
    "lat": 42.9634,
    "lon": -85.6342,
    "category": "outdoor"
  },
  {
    "title": "Grand Rapids Asian-Pacific Festival 2026",
    "date": "Jun 12",
    "time": "All day",
    "location": "Calder Plaza",
    "url": "https://www.experiencegr.com/event/grand-rapids-asian-pacific-festival-2026/96344/",
    "site": "Grand Rapids",
    "parsed_date": "2026-06-12",
    "lat": 42.9634,
    "lon": -85.6681,
    "category": "festival"
  },
  {
    "title": "Justice 4 All Juneteenth Jam",
    "date": "Jun 19",
    "time": "All day",
    "location": "Grand Rapids African American Museum & Archives",
    "url": "https://www.experiencegr.com/event/justice-4-all-juneteenth-jam/96345/",
    "site": "Grand Rapids",
    "parsed_date": "2026-06-19",
    "lat": 42.9634,
    "lon": -85.6681,
    "category": "outdoor"
  },
  {
    "title": "Grand Rapids Pride Festival",
    "date": "Jun 20",
    "time": "All day",
    "location": "Calder Plaza",
    "url": "https://www.experiencegr.com/event/grand-rapids-pride-festival/97412/",
    "site": "Grand Rapids",
    "parsed_date": "2026-06-20",
    "lat": 42.9634,
    "lon": -85.6681,
    "category": "festival"
  },
  {
    "title": "Grand Rapids Fireworks",
    "date": "Jul 04",
    "time": "All day",
    "location": "",
    "url": "https://www.experiencegr.com/event/grand-rapids-fireworks/96372/",
    "site": "Grand Rapids",
    "parsed_date": "2026-07-04",
    "lat": 42.9634,
    "lon": -85.6681,
    "category": "outdoor"
  }
]